station_id,station_name,latitude,longitude,parking_bike_count,rack_count,shared_percent
ST-4,102. 망원역 1번출구 앞,37.5556488,126.91062927,16,15,107
ST-5,103. 망원역 2번출구 앞,37.55495071,126.91083527,13,14,93
ST-6,104. 합정역 1번출구 앞,37.55073929,126.91508484,0,13,0
ST-7,105. 합정역 5번출구 앞,37.55000687,126.91482544,2,5,40
ST-8,106. 합정역 7번출구 앞,37.54864502,126.91282654,3,12,25
ST-9,107. 수협 연남동지점,37.55784607,126.91871643,5,10,50
ST-10,108. 서교동 사거리,37.55274582,126.91861725,0,12,0
ST-15,111. 상수역 2번출구 앞,37.54787064,126.92353058,2,10,20
ST-18,113. 홍대입구역 2번출구 앞,37.5574379,126.9238205,1,28,4
ST-20,114. 홍대입구역 8번출구 앞,37.55706024,126.92442322,2,15,13
ST-12,115. 마스타 빌딩 앞,37.55893326,126.92711639,0,15,0
ST-17,117. 홍은사거리,37.59115982,126.94132996,4,23,17
ST-19,118. 광흥창역 2번출구 앞,37.54773331,126.9317627,5,9,56
ST-21,119. 서강나루 공원,37.54520798,126.93146515,14,10,140
ST-22,120. 신수동 사거리,37.54524231,126.93411255,6,5,120
ST-23,121. 마포소방서 앞,37.54976654,126.93317413,8,15,53
ST-24,122. 신성기사식당 앞,37.54745865,126.93837738,8,10,80
ST-25,123. 문화촌 공원,37.59432983,126.9473877,13,20,65
ST-26,124. 서강대 정문 건너편,37.55113983,126.93698883,0,35,0
ST-28,126. 서강대 후문 옆,37.55041122,126.94384766,0,20,0
ST-30,128. 신촌역(2호선) 1번출구 옆,37.55549622,126.93634033,1,19,5
ST-31,129. 신촌역(2호선) 6번출구 옆,37.55505371,126.93756866,0,10,0
ST-32,130. 신촌역(2호선) 7번출구 앞,37.5550499,126.93626404,3,10,30
ST-33,131. 증산2교,37.5841713,126.91110229,34,20,170
ST-35,133. 해담는다리,37.58203125,126.90899658,26,15,173
ST-36,134. 연세로 명물길,37.55789185,126.93807983,2,8,25
ST-37,135. 명물길 원형무대 앞,37.55922699,126.93984222,0,10,0
ST-39,137. 신촌기차역입구 교차로,37.55681229,126.9431839,1,10,10
ST-40,138. 신촌동 제1공영주차장 앞,37.5591774,126.93452454,0,10,0
ST-43,139. 연세대 정문 건너편,37.55986404,126.93441772,1,10,10
ST-41,140. 이화여대 후문,37.560009,126.94073486,0,22,0
ST-42,141. 연대 대운동장 옆,37.56238174,126.93264771,1,10,10
ST-200,142. 아현역 4번출구 앞,37.55720139,126.95566559,0,11,0
ST-201,143. 공덕역 2번출구,37.54464722,126.9500885,7,8,88
ST-203,145. 공덕역 5번출구,37.54425049,126.95163727,27,9,300
ST-204,146. 마포역 2번출구 뒤,37.53993607,126.94582367,11,12,92
ST-205,147. 마포역 4번출구 뒤,37.53927231,126.94591522,8,5,160
ST-206,148. 용강동 주민센터 앞,37.54234695,126.94302368,16,11,145
ST-207,150. 서강대역 2번출구 앞,37.55295563,126.93434143,2,15,13
ST-210,153. 성산2교 사거리,37.56469727,126.91261292,18,10,180
ST-211,154. 마포구청역 ,37.56090927,126.90549469,12,11,109
ST-212,155. 가좌역1 번출구 앞,37.56829453,126.91504669,19,15,127
ST-213,156. 서울서부지방법원 앞,37.54933167,126.95491791,6,10,60
ST-214,157. 애오개역 4번출구 앞,37.5530014,126.95668793,17,12,142
ST-216,159. 이대역 4번 출구,37.55695343,126.94634247,0,5,0
ST-217,160. 북아현동 가구거리,37.55754852,126.9593811,0,13,0
ST-218,161. 무악재역1번 출구,37.58224487,126.95064545,0,8,0
ST-219,162. 봉원고가차도 밑,37.56626129,126.94667053,13,15,87
ST-220,163. 명지전문대학교 정문 앞,37.58369827,126.9249649,0,6,0
ST-221,164. 북가좌1동 주민센터 ,37.57447815,126.91004944,4,10,40
ST-222,165. 중앙근린공원,37.57513809,126.91394043,25,20,125
ST-223,166. 가재울 초등학교,37.57381821,126.91923523,32,20,160
ST-224,167. 연가초등학교 옆,37.57946014,126.91712952,14,15,93
ST-226,169. 북가좌 삼거리,37.57300186,126.90779877,5,10,50
ST-227,170. DMC파크뷰자이아파트 302동 앞,37.57311249,126.9224472,13,10,130
ST-228,171. 임광빌딩 앞,37.56472397,126.96727753,1,10,10
ST-230,173. 서대문역 8번출구 앞,37.56477737,126.96614838,2,8,25
ST-231,175. 홍연2교옆,37.57806778,126.93088531,13,15,87
ST-555,176. 명지대학교 도서관,37.58109665,126.92402649,19,10,190
ST-345,177. 북가좌 초등학교,37.57763672,126.90965271,18,8,225
ST-349,178. 증산3교 앞,37.57987595,126.90634918,26,9,289
ST-232,179. 가좌역 4번출구 앞,37.56877518,126.91529846,6,14,43
ST-233,180. 충정로역 7번출구 아래,37.55996704,126.96246338,2,10,20
ST-339,181. 망원초록길 입구,37.55134201,126.90267181,12,15,80
ST-340,182. 망원2빗물펌프장 앞,37.5513649,126.90306091,9,9,100
ST-341,183. 하늘채코오롱아파트 건너편,37.56538773,126.91932678,41,15,273
ST-342,184.망원우체국사거리 인근,37.55894852,126.90775299,30,8,375
ST-343,185. 마포 신수공원 앞,37.54254532,126.93429565,1,15,7
ST-344,186. 월드컵공원,37.56396484,126.89820862,6,40,15
ST-346,188. 홍은동 정원여중 입구,37.58638763,126.93512726,9,9,100
ST-347,191. 서우빌딩,37.57889175,126.91073608,12,10,120
ST-348,192. 연서어린이공원,37.57222748,126.92306519,12,8,150
ST-350,194. 증산교 앞,37.57731628,126.90296936,6,10,60
ST-351,195. 모래내고가차도 ,37.56765747,126.91780853,4,10,40
ST-354,198. 충정2교,37.56390762,126.96497345,1,10,10
ST-443,199. 서울 월드컵 경기장,37.56684494,126.89644623,8,30,27
ST-45,200. 국회의원회관,37.52841568,126.91391754,6,22,27
ST-46,201. 진미파라곤 앞,37.53123856,126.92133331,0,15,0
ST-47,202. 국민일보 앞,37.52881622,126.92453003,1,30,3
ST-51,203. 국회의사당역 3번출구 옆,37.5280571,126.91870117,1,15,7
ST-50,204. 국회의사당역 5번출구 옆,37.52816391,126.91702271,1,13,8
ST-52,205. 산업은행 앞,37.52626419,126.92050934,3,20,15
ST-53,206. KBS 앞,37.52466583,126.91802216,1,35,3
ST-73,207. 여의나루역 1번출구 앞,37.52715683,126.93190002,0,46,0
ST-55,209. 유진투자증권빌딩 앞,37.52461243,126.92783356,1,22,5
ST-59,213. KT앞,37.52190781,126.91895294,0,19,0
ST-60,214. 금융감독원 앞,37.5230217,126.9208374,0,21,0
ST-64,215. 여의도고교 앞,37.52483749,126.93490601,0,10,0
ST-66,217. NH농협은행 앞,37.52207947,126.93036652,0,15,0
ST-62,219. 롯데캐슬엠파이어 옆,37.52069473,126.92583466,0,12,0
ST-63,220. 미성아파트 A동 앞,37.5193634,126.92604828,1,30,3
ST-67,221. 여의도초교 앞,37.52267456,126.93778992,0,10,0
ST-68,222. 시범아파트버스정류장 옆,37.51902008,126.93688965,4,12,33
ST-69,223. 진주아파트상가 앞,37.51913071,126.9333725,2,20,10
ST-70,224. 롯데캐슬 앞,37.5200882,126.93236542,0,20,0
ST-71,225. 앙카라공원 앞,37.51758575,126.92961884,0,26,0
ST-72,226. 샛강역 1번출구 앞,37.51776505,126.92841339,3,19,16
ST-277,227. 양평1나들목 보행통로 입구,37.54466629,126.88835907,47,20,235
ST-278,228. 선유도역 3번출구 앞,37.53845978,126.89450836,18,10,180
ST-279,229. 양평1 보행육교 앞,37.53587341,126.8921814,16,25,64
ST-413,230. 영등포구청역 7번출구,37.52435684,126.89600372,0,13,0
ST-280,231. 남부고용노동지청 남측,37.52450562,126.89182281,8,10,80
ST-281,232. 양평우림 이비즈센타 앞,37.52565002,126.88781738,11,20,55
ST-282,233. 양평1동 YP센터 앞,37.52848816,126.89164734,3,10,30
ST-285,236. 문래동자이아파트 앞,37.51615524,126.89461517,1,10,10
ST-286,237. 보라매 두산위브 건너편,37.496521,126.91492462,64,20,320
ST-287,238. 제2구민체육센타 앞,37.52638626,126.90275574,3,17,18
ST-288,239. 유스호스텔 앞,37.5258522,126.90328217,5,19,26
ST-289,240. 문래역 4번출구 앞,37.51873779,126.89557648,0,10,0
ST-290,241. 신길우성1차아파트 앞 공원,37.50501633,126.89853668,27,10,270
ST-291,242. 신길선원가와인아파트 앞,37.51093292,126.91022491,21,15,140
ST-292,243. 이앤씨드림타워 앞,37.52708435,126.89138031,4,15,27
ST-293,244. 영등포삼환아파트 앞,37.53007889,126.90570831,24,20,120
ST-294,245. 삼성생명 당산사옥 앞,37.52826309,126.89662933,0,14,0
ST-295,247. 당산역 10번출구 앞,37.53342056,126.90223694,1,14,7
ST-296,248. 초원아파트 앞,37.53105545,126.92420959,0,10,0
ST-297,249. 여의도중학교 옆,37.52457809,126.93580627,0,16,0
ST-298,250. 대림아파트 사거리,37.50764084,126.92308044,9,10,90
ST-299,251. 서울지방병무청 버스정류장,37.50449371,126.92195129,5,10,50
ST-300,252. 보라매역4번출구,37.49982834,126.91994476,14,10,140
ST-302,254. 도림신협 앞,37.50380325,126.90341949,35,13,269
ST-303,255. 도림사거리,37.50657272,126.90113068,3,15,20
ST-304,256. 동아에코빌입구,37.50947571,126.89929962,11,10,110
ST-306,258. 신길역3번출구,37.51769257,126.91429901,7,14,50
ST-307,259. 대방역6번출구,37.51359177,126.92593384,38,17,224
ST-414,260. 여의도 마리나선착장 앞,37.53365707,126.91216278,6,15,40
ST-417,263. 근로자회관 사거리,37.51715088,126.8886261,3,12,25
ST-418,264. 교보생명보험 앞,37.52193069,126.89161682,8,15,53
ST-419,265. 영등포유통상가 사거리,37.52113342,126.89653778,0,11,0
ST-420,266. 영등포청과시장 사거리,37.52029419,126.90119171,8,10,80
ST-421,267. 삼성화재 사옥 옆,37.53596115,126.89830017,2,15,13
ST-422,268. 그랜드컨벤션센터 앞,37.53471756,126.90000153,2,6,33
ST-424,270. 증권거래소후문교차로,37.52234268,126.92710114,2,10,20
ST-425,271. 샛강생태공원방문자센터 앞,37.51896286,126.9216156,3,10,30
ST-426,272. 당산육갑문,37.53533936,126.90367889,5,20,25
ST-1320,275. 신동아아파트,37.52269745,126.88568115,30,10,300
ST-1321,276. 영등포로터리2,37.51828384,126.9126358,9,10,90
ST-1323,278. 쌍용플레티넘오피스텔,37.50793076,126.89523315,4,10,40
ST-1353,279. 영등포 푸르지오 아파트 B,37.51322937,126.90446472,0,15,0
ST-1539,280. 양평동6차현대아파트 앞,37.53210068,126.8944397,38,10,380
ST-1540,281. 대림신동아아파트 앞,37.49824142,126.89398193,8,8,100
ST-1541,282. 신한은행 대림동지점,37.48752975,126.90487671,37,10,370
ST-1649,283. 아크로타워 스퀘어(영등포시장),37.52251816,126.90721893,43,15,287
ST-1650,284. 센트럴 푸르지오 시티 앞,37.51821136,126.90222931,1,16,6
ST-1651,285. 콤텍시스템 앞,37.49985886,126.89723969,9,9,100
ST-1652,286. 우성아파트 교차로,37.49457169,126.89974976,11,12,92
ST-1653,287. 영등포전화국사거리 (서강어린이공원),37.52576828,126.90573883,25,10,250
ST-1677,288. 쌍용예가(구청별관),37.52809906,126.89338684,10,10,100
ST-1697,289. 대림3동사거리,37.49980927,126.89800262,15,10,150
ST-1698,290. 새말소공원,37.5315094,126.89782715,10,12,83
ST-1699,291. 문래동 하이테크 시티,37.51412964,126.89939117,1,14,7
ST-1700,292. 영일 어린이공원,37.51012039,126.90406799,24,10,240
ST-1701,293. 충북 미래관,37.52917099,126.90757751,42,15,280
ST-1967,295.영등포공원 분수대 앞,37.51481247,126.91170502,0,10,0
ST-1968,296.KT플라자 영등포점,37.52630234,126.90538025,14,20,70
ST-1969,297.국회3문,37.52863693,126.91267395,2,10,20
ST-1970,298.KBS 연구동 건너편,37.52724838,126.91374207,1,25,4
ST-1971,299.여의도 순복음교회,37.53179169,126.92245483,0,10,0
ST-116,300. 정동사거리,37.56805038,126.96923065,0,6,0
ST-117,301. 경복궁역 7번출구 앞,37.57579422,126.97145081,1,20,5
ST-118,302. 경복궁역 6번출구 뒤,37.57561493,126.97289276,0,12,0
ST-123,307. 서울역사박물관 앞,37.56999969,126.97109985,0,11,0
ST-124,308. 광화문 S타워 앞,37.56996918,126.97393799,3,31,10
ST-126,310. 청계광장 옆,37.56887817,126.9774704,0,8,0
ST-130,314. 국립현대미술관,37.5797081,126.98085785,0,10,0
ST-132,316. 종각역 1번출구 앞,37.57039642,126.98178864,0,8,0
ST-134,318. 광교사거리 남측,37.56863403,126.98231506,0,10,0
ST-136,320. 을지로입구역 4번출구 앞,37.56622314,126.98358917,0,17,0
ST-137,321. KEB 하나금융그룹 명동사옥 옆,37.56546402,126.98413849,1,15,7
ST-138,322. 명동성당 앞,37.56447601,126.98696899,0,10,0
ST-140,324. 신세계백화점 본점 앞,37.56134415,126.9805069,0,8,0
ST-142,326. 안국역 5번출구 앞,37.57624054,126.98616028,0,15,0
ST-143,327. 낙원상가 옆,37.57335663,126.9874649,1,10,10
ST-144,328. 탑골공원 앞,37.57039642,126.9881897,2,11,18
ST-145,329. 청계2가 사거리 옆,37.56848526,126.98788452,1,8,13
ST-147,331. 을지로2가 사거리 북측,37.56638336,126.98720551,0,10,0
ST-148,332. 을지로2가 사거리 남측,37.56599045,126.98779297,0,5,0
ST-150,334. 종로3가역 2번출구 뒤,37.5705986,126.99179077,0,10,0
ST-151,335. 종로3가역 15번출구 뒤,37.57019424,126.99165344,0,10,0
ST-152,336. 충무로역 6번출구 앞,37.56144714,126.99311066,0,8,0
ST-153,337. 창경궁 입구,37.57897949,126.99647522,1,5,20
ST-154,338. 세운스퀘어 앞,37.57095718,126.99712372,0,18,0
ST-155,339. 종로4가 사거리,37.57106781,126.99819183,0,10,0
ST-156,340. 혜화동 로터리,37.58562851,127.00067902,8,8,100
ST-157,341. 혜화역 3번출구 뒤,37.58156967,127.00178528,2,8,25
ST-158,342. 대학로 마로니에공원,37.58044434,127.00234222,4,22,18
ST-159,343. 힐스테이트창경궁 아파트 앞,37.57561111,127.00469971,7,6,117
ST-160,344. 성균관대 E하우스 앞,37.57419968,127.0065918,8,10,80
ST-161,345. 서울보증보험본사 앞,37.57330704,127.00070953,11,18,61
ST-162,346. 맥스타일 앞,37.5689621,127.01014709,1,10,10
ST-163,347. 동대문역사문화공원역 9번출구 앞,37.56533051,127.00784302,1,18,6
ST-183,348. 독립문역 사거리,37.57210541,126.96095276,10,14,71
ST-165,349. 어린이도서관,37.57633209,126.96858978,2,5,40
ST-167,351. 청운초교 앞 삼거리,37.58496857,126.97041321,2,5,40
ST-168,352. 중앙고입구 삼거리,37.58341599,126.98523712,0,10,0
ST-169,353. 재동초교 앞 삼거리,37.57938766,126.9849472,1,8,13
ST-170,354. 포르투갈 대사관 앞,37.57915497,126.98896027,3,10,30
ST-171,355. 서울사대부설초등학교 앞,37.57650757,127.00245667,1,15,7
ST-172,356. KT혜화지사 앞,37.57714462,127.00205994,1,15,7
ST-173,358. 성균관대입구 사거리 A,37.58250046,126.99853516,8,13,62
ST-174,359. 원남동사거리,37.57606125,126.99768066,9,8,113
ST-175,361. 동묘앞역 1번출구 뒤,37.57324219,127.01590729,21,10,210
ST-176,362. 청계8가사거리 A,37.57223511,127.0231781,31,10,310
ST-177,363. 신설동역 11번출구 뒤,37.57559204,127.02285004,16,13,123
ST-178,364. 창신역 1번출구 앞,37.57933426,127.01508331,1,8,13
ST-180,367. 독립문역 3-1번출구 ,37.57415771,126.95851898,37,13,285
ST-181,368. SK 서린빌딩 앞,37.5692482,126.98053741,1,15,7
ST-185,370. 시청역(2호선) 9번출구 뒤,37.56322861,126.97483826,0,23,0
ST-186,371. 동대입구역 6번출구 뒤,37.55887222,127.00553894,1,10,10
ST-187,372. 약수역 3번출구 뒤,37.55429459,127.01119995,1,10,10
ST-189,374. 신당동주민센터앞,37.56209183,127.01467133,6,12,50
ST-194,379. 서울역9번출구,37.55580521,126.97330475,3,7,43
ST-195,380. CJ제일제당 앞,37.56386566,127.00274658,3,8,38
ST-196,381. 장충체육관,37.55853271,127.00698853,0,10,0
ST-197,382. 약수역 10번출구 앞,37.55519867,127.01004791,6,7,86
ST-198,383. 신당역 12번 출구 뒤,37.56591797,127.01642609,14,24,58
ST-199,384. 중림동삼거리,37.55978012,126.96850586,2,5,40
ST-336,385. 종각역 5번출구,37.56983566,126.98265839,0,10,0
ST-338,387. 훈련원공원주차장 앞,37.56699371,127.00346375,1,10,10
ST-444,388. 동성중학교 앞,37.58573532,127.0016098,1,10,10
ST-943,389. 을지로4가역 1번출구,37.5667305,126.99660492,1,9,11
ST-944,390. 충무로역 1번출구,37.56138992,126.9953537,0,12,0
ST-977,391. 시립미술관,37.56505203,126.97340393,1,8,13
ST-1372,393. 동대문역 8번 출구,37.57014084,127.00937653,0,12,0
ST-1373,394. 경희궁 자이 3단지,37.56748962,126.96591949,8,15,53
ST-1432,397. 종묘공영주차장 건너편,37.57048035,126.99663544,1,13,8
ST-1435,398. 을지로3가역 3번출구,37.56660461,126.99249268,0,8,0
ST-1436,399. 서울역 센트럴 자이아파트,37.55410767,126.96540833,28,15,187
ST-110,400. 상암한화오벨리스크 1차 앞,37.58752441,126.88300323,27,14,193
ST-76,401. 상암월드컵파크 10단지 앞,37.58618927,126.88161469,14,13,108
ST-77,402. 상암월드컵파크 9단지 앞,37.5829277,126.87983704,20,20,100
ST-78,403. 부엉이공원 앞,37.58559036,126.88472748,0,20,0
ST-80,405. DMC빌 앞,37.58265686,126.88578796,0,8,0
ST-81,406. 상암월드컵파크 7단지 앞,37.58108902,126.88088226,28,15,187
ST-83,407. 마포구 육아종합지원센터,37.58063126,126.88367462,0,17,0
ST-84,408. LG CNS앞,37.58081055,126.88665009,0,14,0
ST-86,409. 누리꿈스퀘어 옆,37.57939911,126.88916016,0,30,0
ST-88,410. 상암중학교 옆,37.57739258,126.88747406,0,10,0
ST-90,411. DMC홍보관,37.5779953,126.89147186,1,10,10
ST-91,412. DMC산학협력연구센터 앞,37.57565689,126.89079285,2,21,10
ST-92,413. 상암월드컵파크 3단지 후문,37.57147598,126.88968658,11,10,110
ST-94,414. 상암동주민센터 옆,37.57822037,126.89447021,1,8,13
ST-95,415. DMC역 9번출구 앞,37.57746887,126.89736176,0,10,0
ST-96,416. 상암월드컵파크 1단지 교차로,37.57566452,126.89444733,1,12,8
ST-93,417. DMC역 2번출구 옆,37.57506943,126.8999176,1,20,5
ST-89,418. 월드컵경기장역 3번출구 옆,37.57277679,126.8992691,1,20,5
ST-87,419. 홈플러스 마포점 앞,37.56842041,126.89942932,1,21,5
ST-85,420. 서울시 공공자전거 상암센터,37.56624603,126.8961792,48,37,130
ST-82,421. 마포구청 앞,37.56574631,126.9018631,7,8,88
ST-990,424. 롯데하이마트 (상암월드컵점),37.57361984,126.8980484,0,15,0
ST-991,425. DMC첨단산업센터,37.58450317,126.88559723,2,10,20
ST-992,426. 서울신용보증재단,37.54906082,126.95417786,31,10,310
ST-1397,427. 성산시영아파트,37.5693779,126.90402985,15,12,125
ST-1437,428. 명보사거리,37.56439972,126.99143219,0,10,0
ST-1438,429. 송도병원,37.54988861,127.00734711,1,8,13
ST-1439,430. 장충동먹자골목 앞,37.56212616,127.0062561,8,6,133
ST-1440,431. 청계천 영도교,37.5710144,127.01974487,13,25,52
ST-1494,432. 마포중앙도서관,37.56333923,126.90820312,0,10,0
ST-1668,433. 을지로입구역 2번출구,37.56634521,126.98229218,0,12,0
ST-1669,434. 신당 래미안 버스정류장,37.56148911,127.02393341,6,10,60
ST-1670,435. SK 남산빌딩,37.55686188,126.97561646,1,10,10
ST-1675,436. 이대역 5번출구,37.55659103,126.94618988,0,10,0
ST-1691,437. 대흥역 1번출구,37.54846954,126.9409256,6,11,55
ST-1692,438. 성산2-1 공영주차장,37.56472015,126.9067688,5,15,33
ST-1754,440. 하늘공원 입구,37.57012177,126.88134766,0,15,0
ST-1761,441.염천교사거리,37.55989075,126.97149658,1,15,7
ST-1768,442.서울역 서부,37.55641556,126.9691925,2,13,15
ST-1769,443.호암아트홀,37.5621109,126.97071838,1,9,11
ST-1771,445.대한상공회의소,37.56015396,126.97410583,0,15,0
ST-938,446. 상명대입구,37.60012817,126.95783234,2,13,15
ST-939,447. 신영동삼거리,37.60399246,126.96194458,1,6,17
ST-941,449. 일성아파트,37.60871887,126.97286224,12,10,120
ST-978,450. 효자동 삼거리,37.58360291,126.97254944,2,51,4
ST-979,451. 청와대앞길,37.58351517,126.97966766,0,8,0
ST-1605,452. 동대문 종합시장 버스정류장,37.57123947,127.00440979,3,13,23
ST-1606,453. 종로오가 지하쇼핑센터 14번출구,37.57114029,127.00067139,1,10,10
ST-1607,454. 종로2가 버스정류장 (종각방향),37.57035828,126.98638153,3,13,23
ST-1608,455. 종로6가역 버스정류장(동대문 방향),37.570961,127.00605774,1,8,13
ST-1609,456. 숭인2동 주민센터 입구,37.57447052,127.0198288,32,10,320
ST-1610,457. 종로꽃시장 입구 옆,37.57131958,127.00720978,2,10,20
ST-1619,461. 서울경찰청,37.57436371,126.97236633,1,10,10
ST-1756,464. 삼청동 골목,37.58419037,126.98169708,3,10,30
ST-1759,465. 삼청공원 앞,37.58760452,126.9835968,0,5,0
ST-1772,466.롯데호텔,37.56584167,126.97981262,1,13,8
ST-1775,469.회현역 1번출구,37.5592308,126.98014069,0,11,0
ST-1776,470.회현역 7번출구,37.55974579,126.98000336,0,13,0
ST-1777,471.회현사거리 남측,37.56035995,126.98265076,0,10,0
ST-1778,472.삼일교(시그니쳐 타워),37.56787109,126.98840332,1,12,8
ST-1779,473.을지로4가역 9번출구,37.56605148,126.99798584,0,20,0
ST-1780,474.동대문역사문화공원역 1번출구 뒤편,37.56629944,127.00849152,7,40,18
ST-1781,475.DDP 패션몰,37.56764984,127.0118103,0,21,0
ST-1782,476.광희문,37.56443024,127.00995636,1,10,10
ST-1783,477.앰배서더 호텔 주변,37.55928802,127.00268555,0,10,0
ST-1785,479.동대입구역 3번 출구,37.55937576,127.00602722,0,8,0
ST-1786,480.약수역 6번 출구,37.55432129,127.01070404,1,8,13
ST-1789,483.남산타운아파트 버스정류장,37.54758453,127.00643921,0,12,0
ST-1791,485.서울역5번출구,37.55677032,126.97319794,0,10,0
ST-2019,486. 평창동주민센터 앞,37.60627365,126.96832275,2,5,40
ST-2147,488.푸르메병원,37.58456802,126.88021088,20,10,200
ST-2148,489.구룡근린공원,37.58320236,126.88276672,4,10,40
ST-2149,490.가온문화공원,37.58207703,126.88766479,1,23,4
ST-2150,491.월드컵파크 4단지,37.57597733,126.88806915,0,10,0
ST-2152,493.홍대입구역 6번출구,37.55657578,126.9288559,1,7,14
ST-2153,494.신수동주민센터,37.54724503,126.93502808,4,5,80
ST-2154,495.염리초등학교 앞,37.54243088,126.9469986,8,10,80
ST-2156,497.합정동주민센터 앞,37.551754,126.91230011,2,25,8
ST-2157,498.연남동주민센터 앞,37.56465149,126.92212677,18,10,180
ST-97,500. 어린이대공원역 3번출구 앞,37.54697037,127.07466888,2,5,40
ST-98,501. 광진문화예술회관 앞,37.53730774,127.07035065,2,30,7
ST-99,502. 자양(뚝섬한강공원)역 1번출구 앞,37.53186035,127.06719208,4,33,12
ST-102,505. 자양사거리 광진아크로텔 앞,37.53701019,127.08224487,1,11,9
ST-103,506. 금호 어울림 아파트 앞,37.54906082,127.05779266,0,7,0
ST-105,508. 성수아카데미타워 앞,37.54516983,127.05757141,2,10,20
ST-107,510. 뚝도아리수정수센터 버스정류소 옆,37.54122162,127.04380035,6,15,40
ST-108,511. 서울숲역 5번 출구 옆,37.54458237,127.04460907,0,16,0
ST-109,512. 뚝섬역 1번 출구 옆,37.5485611,127.0450058,0,15,0
ST-111,513. 뚝섬역 5번 출구 정류소 옆,37.54630661,127.04980469,0,13,0
ST-112,514. 성수사거리 버스정류장 앞,37.54257965,127.06330872,2,12,17
ST-113,515. 광양중학교 앞,37.53023529,127.08683014,10,15,67
ST-114,516. 광진메디칼 앞,37.54840469,127.06936646,20,10,200
ST-234,518. 청계천 박물관 앞,37.57152557,127.03535461,13,20,65
ST-235,519. 양지사거리,37.56699371,127.02991486,5,20,25
ST-236,520. 상왕십리역 4번 출구 앞,37.56385803,127.03031921,2,7,29
ST-237,521. 왕십리역 11번 출구 앞,37.56144714,127.03491974,3,14,21
ST-238,522. 금호역 1번출구 앞,37.5486412,127.01642609,10,5,200
ST-239,523. 옥수동성당 옆,37.54366302,127.01406097,2,7,29
ST-240,524. 래미안금호하이리버 아파트 102동 옆,37.55220032,127.02505493,4,10,40
ST-241,525. 한양대병원사거리,37.55805206,127.04035187,0,20,0
ST-242,526. 용답토속공원 앞,37.56351089,127.05672455,3,10,30
ST-243,529. 장한평역 8번 출구 앞,37.56137085,127.06365967,24,8,300
ST-244,530. 청계벽산아파트 앞,37.56874847,127.03040314,24,9,267
ST-245,533. 금남시장 교차로,37.54814911,127.02108765,28,7,400
ST-246,534. 금호사거리,37.54863358,127.02572632,21,10,210
ST-247,535. 응봉삼거리,37.5539856,127.03359222,3,11,27
ST-248,536. 행당역 2번출구 앞,37.55735016,127.02921295,10,8,125
ST-249,537. 한양대후문역 부근,37.56035614,127.04139709,0,10,0
ST-252,539. 군자교교차로,37.55979538,127.07420349,6,10,60
ST-253,540. 군자역 7번출구 베스트샵 앞,37.55603027,127.0786438,2,8,25
ST-254,542. 강변역 4번출구 뒤,37.53582382,127.09416199,0,19,0
ST-255,543. 구의공원(테크노마트 앞),37.53598785,127.09462738,2,20,10
ST-256,544. 광남중학교,37.54072952,127.10290527,32,10,320
ST-257,546. 잠실대교북단 교차로,37.53278351,127.08495331,15,8,188
ST-258,548. 자양나들목,37.5297699,127.07485962,32,20,160
ST-259,549. 아차산역 3번출구,37.55122375,127.08970642,20,10,200
ST-251,550. 서울시설공단 앞,37.57164001,127.03565979,6,20,30
ST-377,551. 구의삼성쉐르빌 앞,37.5398407,127.09388733,18,11,164
ST-378,552. 대림아크로리버 앞,37.53657913,127.0929718,4,9,44
ST-379,553. 중곡 성원아파트 앞,37.57125473,127.07980347,22,19,116
ST-381,555. 구의3동주민센터,37.53784943,127.09217072,2,9,22
ST-357,556. 달맞이공원,37.54205322,127.020401,3,7,43
ST-358,557. 도선동 주민센터 앞,37.56764221,127.0256958,27,10,270
ST-359,558. 성동광진 교육지원청 앞,37.56460571,127.03652191,2,20,10
ST-360,559. 왕십리역 4번 출구 건너편,37.56109619,127.03679657,4,13,31
ST-361,560. 비전교회 앞,37.55120468,127.06893158,36,14,257
ST-362,561. 서울숲역 2번출구 앞,37.54281616,127.0446701,5,10,50
ST-364,563. 성동세무서 건너편,37.5479126,127.06275177,0,10,0
ST-365,564. 금호역 3번출구,37.54792786,127.01557159,12,7,171
ST-369,568. 청계8가 사거리 B,37.57110214,127.02355957,37,14,264
ST-370,569. 응봉현대아파트 정류소,37.54958344,127.03024292,3,10,30
ST-382,571. 세종대학교 대양AI센터,37.55039597,127.07585907,0,20,0
ST-384,573. 구의문주차장 앞,37.54523087,127.08473206,11,10,110
ST-385,574. 아차산역4번출구,37.55184937,127.08898163,31,22,141
ST-386,575. 대원중고교 입구(대하빌딩),37.56429291,127.08693695,0,10,0
ST-387,576. 광나루역 3번 출구,37.54483032,127.10426331,43,10,430
ST-388,577. 광진청소년수련관,37.54689789,127.10562897,32,10,320
ST-371,578. 성동세무서 부근,37.54829025,127.06246185,3,8,38
ST-372,579. 마장역 4번출구,37.56520462,127.04184723,13,8,163
ST-375,582. 경일중학교 앞,37.54317856,127.0490799,0,10,0
ST-376,583. 청계천 생태교실 앞,37.56797028,127.04689026,21,25,84
ST-445,584. 광진광장 교통섬,37.54782867,127.07263184,5,20,25
ST-446,585. 성수2가1동 공영주차장 인근,37.53680801,127.05548859,16,9,178
ST-447,586. 마장동 주민센터,37.56594086,127.0453949,21,10,210
ST-482,587. 유니베라 앞,37.54541779,127.05264282,0,10,0
ST-483,588. 뚝섬 유원지역,37.53268814,127.06749725,1,20,5
ST-972,590. 건국대학교 (입학정보관),37.53989029,127.07336426,1,20,5
ST-973,591. 건국대학교 (행정관),37.54277802,127.07537079,0,5,0
ST-974,592. 건국대학교 학생회관,37.54191208,127.07763672,2,30,7
ST-980,593.자양중앙나들목,37.52845383,127.07803345,49,8,613
ST-967,594. 중랑물재생센터(서울새활용플라자),37.55830383,127.05805969,17,15,113
ST-260,600. 휘경2동 주민센터,37.58991241,127.06867981,27,10,270
ST-262,602. 장안동 사거리,37.57217407,127.07138824,6,10,60
ST-265,605. 신설동역8번출구,37.57419968,127.02649689,4,8,50
ST-266,606. 서울반도체고 앞,37.58462524,127.07028961,13,15,87
ST-267,607. 신이문역 2번출구,37.60271072,127.06786346,11,15,73
ST-268,608. 전농삼성아파트,37.58131027,127.05534363,0,10,0
ST-269,609. 제기2교,37.58774567,127.03738403,7,30,23
ST-270,610. 동대문중 교차로,37.57308578,127.05216217,11,10,110
ST-271,612. 시립동부병원 앞 사거리,37.57366562,127.03081512,11,20,55
ST-272,613. 신설동역 10번출구 앞,37.57527161,127.02346802,18,8,225
ST-273,614. 용두동 사거리,37.57768631,127.03101349,10,23,43
ST-274,615. 용두동 래미안허브리츠아파트 앞,37.57638168,127.03511047,49,25,196
ST-275,616. 서울시립대 정문 앞 A,37.58256149,127.05436707,0,10,0
ST-276,617. 청솔우성아파트 앞,37.57420349,127.05769348,36,20,180
ST-389,621. 전농초등학교 건너편,37.57489014,127.05353546,7,8,88
ST-390,622. 전농사거리 교통섬,37.57779312,127.05783081,49,15,327
ST-391,623. 서울시립대 정문 앞 B,37.58369827,127.0538559,1,25,4
ST-392,624. 전농동 동아아파트 앞,37.57418823,127.04589081,40,10,400
ST-394,626. 군자교 서측 녹지대,37.56115341,127.07096863,43,17,253
ST-395,627. 장안동삼거리 교통섬,37.57863235,127.07190704,26,10,260
ST-396,628. 휘봉고등학교 앞,37.58677673,127.06764221,29,15,193
ST-397,630. 동대문구 보건소,37.5747757,127.04036713,28,15,187
ST-398,631. 답십리역 1번출구,37.5681839,127.05127716,15,15,100
ST-400,633. 청량리 기업은행 앞,37.58049774,127.04472351,7,8,88
ST-401,634. 외국어대 정문 앞,37.59601974,127.05982971,4,24,17
ST-402,635. 시조사 앞,37.58751678,127.05277252,6,12,50
ST-403,636. 세종대왕기념관 교차로,37.59073639,127.04258728,3,9,33
ST-404,637. KAIST 경영대학 앞,37.59161377,127.04579163,0,10,0
ST-405,638. 서울시립대 정보기술관,37.58300781,127.06097412,0,10,0
ST-406,639. 서울시립대 후문,37.58504486,127.06027222,0,7,0
ST-407,640. 동대문경찰서 교차로,37.58255005,127.04460144,12,6,200
ST-408,641. 용두역 4번출구,37.57375336,127.03853607,34,10,340
ST-409,642. 신답역 사거리,37.57035446,127.0484314,11,9,122
ST-410,643. 동대문구민체육센터 (육교아래),37.56697083,127.07429504,50,10,500
ST-1300,648. 장안동위더스빌옆,37.56669998,127.06242371,60,15,400
ST-1302,650. 중랑교사거리,37.59153366,127.06774139,48,20,240
ST-1447,652. 답십리 래미안엘파인아파트 입구,37.57653046,127.06594086,16,10,160
ST-1449,654. 전농동 텃골공원,37.57762146,127.05210876,5,10,50
ST-1628,656. 영휘원 교차로,37.58712006,127.04325104,22,10,220
ST-1629,657. 동대문롯데캐슬아파트 앞,37.57554626,127.04881287,39,13,300
ST-1625,661. 경희대학교 청운관,37.59460068,127.05197144,0,15,0
ST-1671,663. 외대앞역 3번출구,37.59489059,127.06302643,38,10,380
ST-1758,664. 서울시립대 건설공학관,37.58412933,127.05793762,2,10,20
ST-2265,665.이문동 쌍용아파트 정문,37.59960556,127.06864166,39,11,355
ST-2266,666.이문대성유니드아파트 앞,37.60362244,127.0708313,17,20,85
ST-2267,667.청량차도 육교 밑,37.58670807,127.04688263,6,7,86
ST-2269,669.청계한신휴플러스앞 삼거리,37.57214737,127.04460907,30,10,300
ST-2270,670.삼육서울병원 버스정류장,37.5896759,127.06151581,30,9,333
ST-2271,671.대광빌딩,37.57734299,127.02337646,1,7,14
ST-2272,672.대광고등학교,37.57875061,127.02402496,1,17,6
ST-2273,673.안암골벽산아파트(후문),37.58407974,127.03103638,7,10,70
ST-2274,674.고대앞사거리 교통섬,37.58655167,127.03314209,8,15,53
ST-2276,676.FITI시험연구원 앞,37.58143234,127.03547668,14,9,156
ST-2278,678.장안힐스테이트(아) 앞,37.57655716,127.0743103,34,21,162
ST-2279,679.전농SK아파트 앞,37.57787704,127.06168365,4,10,40
ST-2280,680.꿈마루어린이도서관 앞,37.59238434,127.05741119,6,22,27
ST-2281,681.서울특별시 동부교육지원청(육교),37.5798378,127.0563736,0,14,0
ST-308,700. KB국민은행 염창역 지점 앞,37.5468483,126.87277222,30,20,150
ST-309,701. 목동사거리 부근,37.53280258,126.86392975,22,8,275
ST-310,702. 목4동주민센터 옆,37.53254318,126.86872864,48,20,240
ST-311,703. 오목교역 7번출구 앞,37.52362823,126.87524414,1,12,8
ST-312,704. 남부법원검찰청 교차로,37.52325439,126.86490631,1,14,7
ST-313,706. 신정네거리역,37.5218811,126.85175323,6,15,40
ST-315,708. 서울출입국관리사무소 앞,37.51897049,126.8699646,3,15,20
ST-316,709. 신정3동 현장민원실 앞,37.51158524,126.84156036,1,20,5
ST-317,710. 금옥여고보도육교,37.50971222,126.84416962,1,10,10
ST-318,711. 신일해피트리아파트 앞,37.51705933,126.84848785,29,20,145
ST-320,713. 양서중학교 옆,37.53304672,126.82995605,2,20,10
ST-321,714. 한국SGI 양천문화회관 앞,37.532547,126.83080292,7,10,70
ST-428,716.신정6동 주민센터 인근,37.51731873,126.86431885,20,22,91
ST-431,719. 홍익병원앞 교차로,37.53109741,126.86402893,19,10,190
ST-432,720. 서울강월초등학교 앞,37.5161972,126.8348999,24,10,240
ST-993,722. 경서농협 버스정류장(우리은행신정동지점방향),37.52151108,126.85738373,29,10,290
ST-994,723. SBS방송국,37.52916336,126.87274933,2,15,13
ST-995,724. 계남공원 입구 주출입구 좌측,37.51059723,126.85732269,7,10,70
ST-997,726. 목동3단지 시내버스정류장,37.5343895,126.86959839,73,18,406
ST-1000,729. 서부식자재마트 건너편,37.51037979,126.8667984,34,10,340
ST-1002,731. 서울시 도로환경관리센터,37.5298996,126.87654114,2,10,20
ST-1004,733. 신정이펜하우스314동,37.51409912,126.83100128,9,10,90
ST-1005,734. 신트리공원 입구,37.51395035,126.85605621,59,10,590
ST-1006,735. 영도초등학교,37.53637695,126.87151337,57,10,570
ST-1007,736. 오솔길공원,37.52219009,126.83670044,30,10,300
ST-1008,737. 장수공원,37.52231216,126.8490448,6,20,30
ST-1010,739. 신월사거리,37.53699493,126.82728577,18,13,138
ST-1011,740. 으뜸공원,37.53636932,126.83171082,22,8,275
ST-1012,741. 화곡로 입구 교차로,37.53952026,126.82540131,5,10,50
ST-1013,742. 등촌역 5번 출구 뒤,37.55073166,126.86457825,13,10,130
ST-1015,744. 신목동역 2번 출구,37.54384232,126.88254547,5,40,13
ST-1016,745. 강서초등학교,37.52228165,126.83969879,24,10,240
ST-1017,746. 목동2단지 상가,37.53650284,126.87774658,12,10,120
ST-1018,747. 목동3단지 상가,37.53458023,126.8756485,8,10,80
ST-1019,748. 목동운동장,37.53025055,126.87930298,15,15,100
ST-1350,749. 이대목동병원보도육교,37.53722763,126.88661194,35,10,350
ST-1398,750. 연의근린공원 건너편,37.51222992,126.83578491,17,10,170
ST-1400,752. 성원2차 아파트,37.54218292,126.86330414,7,10,70
ST-1495,754. 목동1단지아파트 118동 앞,37.54114151,126.87667847,65,10,650
ST-1496,755. 목동1단지아파트 상가 앞,37.5378685,126.88140869,4,7,57
ST-1497,756. 목동주차장,37.52667999,126.8761673,15,15,100
ST-1498,757. 신정이펜하우스 1단지아파트 입구 사거리,37.51427841,126.82874298,14,10,140
ST-1499,758. 한사랑교회 앞,37.51472092,126.85919952,20,13,154
ST-1500,759. 보아스아파트 앞,37.52407074,126.83860016,17,10,170
ST-1501,760. 잣절보도육교 아래,37.50682068,126.84429932,20,10,200
ST-1503,762. 오목로 무중력지대 앞,37.52474213,126.87766266,0,10,0
ST-1504,763. 목동11단지 아파트,37.51065826,126.85916138,38,10,380
ST-1731,765. 오목교역 3번출구,37.52477646,126.87548065,1,12,8
ST-1993,767.신정숲속마을아파트,37.50574493,126.83631134,18,10,180
ST-1994,768.목동5단지아파트 501동,37.53566742,126.88158417,20,15,133
ST-1995,769.CBS방송국 앞,37.52785492,126.87467194,2,20,10
ST-1996,770.목동역5번출구,37.52571487,126.86486816,3,12,25
ST-1997,771.목동아파트 703동 앞,37.52820587,126.87016296,0,8,0
ST-1999,"773.염창역 3, 4번 출구 사이",37.54670715,126.87457275,13,10,130
ST-2000,774.등촌역 4번 출구 ,37.54950714,126.86721802,2,11,18
ST-2001,775.세종그랑시아 앞(102동),37.53837585,126.86383057,13,10,130
ST-2002,776.목마공원,37.53874207,126.88568115,10,15,67
ST-2003,777.신월6차보람아파트 앞,37.52988815,126.83500671,24,10,240
ST-2005,779. 신정1동 주민센터 앞,37.51854324,126.85388184,62,20,310
ST-2006,780.신정교 하부,37.5173378,126.8776474,59,15,393
ST-2007,781.신정보도육교 아래,37.51759338,126.8765564,81,29,279
ST-2008,782.서남병원 후문,37.51167297,126.83274078,27,20,135
ST-2011,"785.양천구청, 보건소 사잇길",37.51747513,126.86632538,21,24,88
ST-2012,786.목동아파트 8단지 상가동 앞,37.52006912,126.86831665,16,9,178
ST-2013,787.양천아파트 입구,37.50790405,126.86264801,105,28,375
ST-2014,788.양천구청역 2번출구 옆,37.51228714,126.86528015,4,15,27
ST-2016,791.현대하이페리온,37.52490234,126.86980438,0,15,0
ST-2017,792.목동트라팰리스 웨스턴에비뉴,37.52537155,126.8709259,1,20,5
ST-2039,793.목동5단지아파트 534동,37.53302002,126.87789917,35,15,233
ST-2395,794.양천문화회관,37.51686478,126.86296082,40,10,400
ST-2396,795.양천 해누리타운,37.51584244,126.86411285,13,22,59
ST-2397,796.목동아파트 14단지 B상가 앞,37.5146637,126.87194061,62,10,620
ST-2398,797.목동아파트 1422동 1434동 사잇길,37.51515579,126.87248993,63,10,630
ST-322,800. 목월공원 앞,37.53243256,126.95474243,9,15,60
ST-324,802. 한강진역 2번 출구 앞,37.54115295,127.00221252,0,9,0
ST-326,805. 문배어린이공원 앞,37.53675842,126.97000122,14,9,156
ST-327,806. 전자랜드 본관 앞,37.5330658,126.96073151,16,20,80
ST-328,807. 서울역 12번 출구 앞,37.55227661,126.97268677,5,10,50
ST-329,808. 서빙고동 금호맨션 앞,37.520504,126.98973846,11,10,110
ST-330,809. 한남 유수지 복개주차장,37.53016663,127.00743866,5,10,50
ST-331,810. 이태원지하보도,37.53841019,126.98664856,0,10,0
ST-332,811. 녹사평역1번출구,37.53507996,126.98538208,1,20,5
ST-334,813. 삼각지역 3번출구,37.53351212,126.97227478,17,15,113
ST-335,815. LIG강촌아파트 103동앞,37.51850891,126.97879791,45,30,150
ST-435,816. 신용산역 6번출구 앞,37.53014755,126.96848297,16,25,64
ST-436,817. 삼각지역 4번출구 앞,37.53345108,126.97173309,12,9,133
ST-437,818. 숙명여대 입구 교차로,37.54489517,126.96938324,11,12,92
ST-438,819. 선린인터넷 고등학교,37.54165268,126.97050476,26,12,217
ST-439,820. 청파동입구 교차로,37.54902649,126.97194672,5,10,50
ST-440,822. 이촌1동 마을공원,37.52202606,126.96618652,11,10,110
ST-441,823. 효창동주민센터 앞,37.54232025,126.96195984,11,10,110
ST-442,825. 서빙고동 주민센터 앞,37.52033615,126.9942627,7,15,47
ST-946,826. 서울역 서부교차로2,37.55536652,126.96864319,10,20,50
ST-1324,827. 국군복지단,37.54151535,126.97951508,0,14,0
ST-1325,828. 숙대입구역 8번,37.54407883,126.97200012,3,7,43
ST-1326,829. 한강대교 북단 교차로,37.52293015,126.96169281,12,40,30
ST-1327,830. 강변삼성스위트아파트 앞,37.53442383,126.94857025,12,10,120
ST-1339,832. 이촌1동 주민센터 뒤,37.5212822,126.97346497,23,20,115
ST-1341,834. 효창공원앞역 3번출구 앞,37.53900146,126.96181488,26,9,289
ST-1342,835. 남영역 건너편,37.54198074,126.97154236,5,9,56
ST-1343,836. 현대자동차서비스 앞,37.53142166,126.95149994,3,15,20
ST-1344,837. 한남나들목 입구,37.52898788,127.00662231,4,10,40
ST-1376,838. 숙대입구역 4번출구,37.54464722,126.97234344,1,8,13
ST-1441,839. 보광동 삼성리버빌아파트 앞,37.5240097,127.00144958,14,10,140
ST-1442,840. 용산 파크타워 앞,37.52365112,126.97026825,12,10,120
ST-1443,841. 신용산역 1번 출구,37.52960968,126.96887207,8,25,32
ST-1445,843. 이태원관광특구 입구(용산구청방향),37.53379822,126.98867035,0,19,0
ST-1446,844. 이촌2동 동원베네스트 아파트 앞,37.5271492,126.95516205,50,15,333
ST-1615,845. 용산 선인상가,37.53269958,126.96437836,7,16,44
ST-1721,846. 용산중학교,37.54650116,126.9809494,0,15,0
ST-2172,848. 삼각지12번 출구,37.53488922,126.97562408,10,8,125
ST-2173,849. 삼각지 자이아파트,37.53607941,126.97341919,32,20,160
ST-2174,850.KCC용산웰츠(WELLTZ)타워,37.53739929,126.96892548,18,15,120
ST-2175,851.효창 푸르지오 앞,37.54047775,126.95811462,12,10,120
ST-2176,852. 청암자이아파트 앞,37.53452682,126.9471817,22,25,88
ST-2177,853.용산역 맞은편,37.52841568,126.96595001,3,19,16
ST-2178,854.HID 유족동지회 앞,37.53850937,127.0014801,0,10,0
ST-2179,855.이촌역5번출구 앞,37.52272415,126.97277069,11,10,110
ST-2181,857. 현대 안성타워,37.53508759,126.99797058,0,10,0
ST-2182,858.녹사평역3번 출구,37.53440857,126.9868927,0,10,0
ST-2183,859.남산공원 야외식물원 앞,37.54188538,126.99586487,0,10,0
ST-2184,860.LG한강 자이아파트 앞,37.52074814,126.9708252,13,22,59
ST-2187,863.이촌역2번 출구,37.52177048,126.977005,3,10,30
ST-2188,864.순천향대학병원(한남오거리),37.53514099,127.00600433,2,10,20
ST-2190,866.브라운스톤 남산아파트,37.551548,126.97686005,5,10,50
ST-2191,867.서빙고역 광장(1번출구),37.51990891,126.98923492,5,10,50
ST-2239,869.노들섬 동측 앞,37.51729584,126.95914459,5,10,50
ST-2240,870.노들섬 서측 앞,37.51731873,126.95829773,11,10,110
ST-448,900. 은평예술회관,37.60394287,126.92769623,7,20,35
ST-450,902. 진관동 은빛초등학교,37.64310837,126.91822052,24,10,240
ST-451,903. 은평뉴타운 아이파크,37.64586639,126.92739105,11,19,58
ST-452,904. 은평뉴타운 푸르지오,37.64867401,126.93070221,23,16,144
ST-453,905. 구파발역 2번출구,37.63623428,126.91899872,3,10,30
ST-454,906. 연신내역 5번출구,37.61721039,126.91957855,22,8,275
ST-455,907. CJ 드림시티,37.59949493,126.91698456,21,10,210
ST-456,908. 구산역 4번출구,37.61318588,126.91735077,10,10,100
ST-459,911. 은평평화공원(역촌역4번출구),37.60558319,126.92293549,8,10,80
ST-460,912. 응암오거리,37.58966064,126.91694641,20,20,100
ST-461,913. 이마트 버스정류장(서부경찰서 방면),37.60070038,126.92012787,2,15,13
ST-462,914. 새절역 2번출구,37.59080887,126.91368866,34,20,170
ST-463,915. 증산역 4번출구,37.5843811,126.90989685,32,10,320
ST-464,916. 평생학습관 앞,37.60784912,126.92132568,26,13,200
ST-465,917. 녹번역 3번출구,37.60074615,126.93501282,1,10,10
ST-467,919. 서울혁신파크,37.60702515,126.93331146,7,10,70
ST-469,921. 신도고등학교,37.63001633,126.91902924,0,8,0
ST-470,922. 연신내역 4번출구,37.61780167,126.92196655,5,10,50
ST-471,923. 국민은행 연서지점,37.62094879,126.92563629,11,10,110
ST-473,925. 불광역 2번출구,37.60956573,126.93097687,3,8,38
ST-475,927. 연신내역 3번출구 인근,37.61785507,126.9225235,4,10,40
ST-476,928. 은평역사한옥박물관,37.64131546,126.93804169,14,7,200
ST-478,930. 구 서부경찰서 건너편,37.60166168,126.92030334,22,7,314
ST-479,931. 역촌파출소,37.60473633,126.91533661,55,19,289
ST-480,932. 예일여중,37.61000443,126.91639709,31,20,155
ST-481,933. 역촌종합시장 버스정류장(예일여고 방면),37.61248398,126.91487885,52,15,347
ST-1023,937. 상림마을 롯데캐슬2단지 옆,37.64585114,126.92379761,1,10,10
ST-1024,938. 금암 문화공원,37.64468384,126.91845703,15,10,150
ST-1025,939. 은평구청 교차로,37.60169983,126.92742157,0,15,0
ST-1027,941. 은평뉴타운 도서관,37.63722229,126.93330383,3,13,23
ST-1028,942. 상림마을 생태공원,37.64408112,126.92928314,6,9,67
ST-1029,943. 은평구청 보건소,37.60240173,126.9286499,8,7,114
ST-1031,945. 기자촌 사거리 A,37.63414001,126.93234253,2,10,20
ST-1032,946. 독바위역 ,37.61843872,126.93288422,2,16,13
ST-1033,947. 연신내 선일하이츠빌 정류소,37.62266922,126.91999054,4,10,40
ST-1034,948. 디지털미디어 시티역 4번출구(DMC역),37.57720184,126.90235138,1,10,10
ST-1035,949. 연신내역 1번 출구 ,37.61978149,126.92080688,12,6,200
ST-1036,950. 구산역 2번 출구 예일여고 버스정류장,37.60980225,126.91679382,19,10,190
ST-1038,952. 서울연신중학교,37.62265015,126.92524719,15,10,150
ST-1039,953. 서울연신초등학교,37.6257782,126.92881775,1,10,10
ST-1329,954. 은평뉴타운구파발9단지,37.64260864,126.92147827,14,10,140
ST-1331,956. 응암시장교차로,37.59441376,126.91801453,31,9,344
ST-1479,958. 본 서부병원 버스정류장(은평 세무서 방면),37.60036087,126.92281342,13,13,100
ST-1480,959. 구파발10단지 인근,37.64318466,126.91509247,31,10,310
ST-1481,960. 구파발역 환승센터,37.63825226,126.91945648,14,15,93
ST-1483,962. 은평뉴타운엘크루 앞,37.63925934,126.91890717,3,10,30
ST-1484,963. 불광롯데캐슬아파트 앞,37.6128006,126.93217468,0,13,0
ST-1485,964. 북한산힐스테이트 7차아파트,37.61654282,126.92512512,4,10,40
ST-1486,965. 서울특별시 은평병원,37.59347916,126.92318726,7,10,70
ST-1487,966. 서울혁신파크1,37.60944748,126.93467712,1,10,10
ST-1488,967. 서울혁신파크2,37.60849762,126.93199921,2,13,15
ST-1489,968. 은평뉴타운 상림마을 13단지,37.64208984,126.92941284,1,7,14
ST-1490,969. 은평 지웰테라스,37.64339447,126.93213654,0,9,0
ST-1674,971. 역촌 센트레빌 아파트,37.60232925,126.90654755,30,20,150
ST-2241,973.제각말푸르지오 5-1단지 아파트,37.63734818,126.93584442,3,10,30
ST-2242,974.연신초등학교옆 마을마당,37.62672043,126.92901611,1,10,10
ST-2243,975.백련산 힐스테이트상가앞,37.59036255,126.92301178,12,10,120
ST-2244,976.진관고등학교앞,37.64350891,126.92410278,12,10,120
ST-2245,977.신도중학교앞,37.63310242,126.9315033,0,10,0
ST-2246,978.녹번 힐스테이트상가앞,37.60100937,126.93592834,0,10,0
ST-2247,979.원풍빌라앞,37.59186172,126.90608215,0,10,0
ST-2250,982. 녹번초등학교(서오릉로),37.60412598,126.92508698,15,10,150
ST-2252,984.상신초등학교앞 버스정류장,37.59580994,126.91026306,21,9,233
ST-2253,985. 은평세무서 버스정류장(은평구청 방면),37.60119247,126.92638397,1,10,10
ST-2257,989. 신응교(가좌로) 앞,37.59181213,126.91483307,19,7,271
ST-2259,991.흥국사 정류장,37.6567688,126.94200897,7,10,70
ST-2260,992.북한산입구 정류장,37.65828705,126.94529724,4,10,40
ST-2261,993.은평뉴타운 은뜨락아파트앞,37.63028717,126.91956329,0,15,0
ST-2262,994.북한산생태공원입구(교통섬),37.61050797,126.9385376,4,10,40
ST-2263,995.은평다목적체육관,37.63140869,126.92540741,4,10,40
ST-2264,996.응암역2번출구 국민은행 앞,37.59996796,126.91572571,19,10,190
ST-485,1001. 광진교 남단 사거리(천호공원 방면),37.54179382,127.12474823,35,15,233
ST-488,1004. 삼성광나루아파트 버스정류장,37.55332947,127.1288681,43,10,430
ST-490,1006. 롯데캐슬 115동앞,37.55486679,127.14279938,1,10,10
ST-491,1007.암사동 선사유적지,37.55955887,127.13087463,9,14,64
ST-492,1008. 암사역 3번출구(국민은행앞),37.54935455,127.12708282,100,9,1111
ST-493,1009. 천호역4번출구(현대백화점),37.53866577,127.12424469,6,20,30
ST-494,1010. 강동세무서,37.53450775,127.13840485,25,20,125
ST-495,1011. LIGA 아파트 앞,37.53474426,127.13528442,53,20,265
ST-496,1012. 천호역효성해링턴타워 앞,37.53600693,127.12272644,15,15,100
ST-497,1013. 강동구청역 1번 출입구,37.53071594,127.12098694,6,15,40
ST-500,1016. 해뜨는 주유소옆 리엔파크 109동앞,37.55939865,127.17118073,23,10,230
ST-501,1017. 둔촌고교입구 교차로(길동주민센터 방면),37.53544617,127.14518738,17,20,85
ST-830,1018. 둔촌 주공 GS 맞은편,37.52425385,127.13528442,44,15,293
ST-502,1019. 다성이즈빌아파트(호원대 대각선 맞은편),37.52679443,127.13005829,70,10,700
ST-503,1020. 강동경찰서,37.52825165,127.12680054,73,15,487
ST-504,1021. 강일동 리슈빌 빌딩앞,37.56427383,127.17397308,71,15,473
ST-505,1022. 길동 사거리(초소앞),37.53377914,127.13799286,39,14,279
ST-1040,1023. 한국종합기술사옥 앞,37.54998398,127.17470551,16,22,73
ST-1041,1024.  강동구청 앞,37.52929688,127.12315369,44,10,440
ST-1042,1025. 상일초등학교,37.54684067,127.17251587,5,10,50
ST-1044,1027. 프라자 아파트 앞,37.53596115,127.14781952,13,20,65
ST-1045,1028. 포레스 주상복합 빌딩,37.53310776,127.12277222,17,10,170
ST-1046,1029. 성내어울터,37.53655624,127.12553406,1,7,14
ST-1047,1030. 미호 플랜트 앞,37.52703094,127.12206268,32,15,213
ST-1048,1031. 올림픽로 836(아리수로),37.55604172,127.13093567,97,15,647
ST-1049,1032. 선사고등학교,37.55672836,127.13626099,48,20,240
ST-1050,1033. 고덕동 아남아파트,37.55793381,127.14476776,42,17,247
ST-1051,1034. 고덕동 래미안 힐스테이트,37.5618782,127.15078735,11,15,73
ST-1053,1036. 고덕동 주양쇼핑,37.55199051,127.15331268,1,10,10
ST-1054,1037. 강일리버파크 6단지,37.56256485,127.1776123,30,10,300
ST-1055,1038. 강일 다솜 어린이 공원,37.56863785,127.17480469,51,10,510
ST-1056,1039. 고덕초등학교,37.56129837,127.16784668,18,7,257
ST-1058,1041. 묘곡초등학교,37.55916214,127.15332031,12,10,120
ST-1059,1042. 강일리버파크 2~5단지,37.5685463,127.17700958,30,10,300
ST-1061,1044. 굽은다리역,37.54540634,127.14267731,75,15,500
ST-1370,1048. 둔촌어린이공원,37.53099442,127.14237213,46,13,354
ST-1371,1049. 강일리버파크 10단지,37.561203,127.18026733,73,10,730
ST-1420,1050.  둔촌역 3번 출입구,37.52678299,127.13557434,60,15,400
ST-1421,"1051. 강일중,선사고 버스정류장(신암중학교 방면)",37.55483627,127.13732147,13,15,87
ST-1597,1056. 강일리버파크 7~11단지,37.56335449,127.17905426,61,10,610
ST-1598,1057. 능골근린공원,37.55580902,127.1737442,30,15,200
ST-1623,1058. 고덕숲 아이파크 1,37.55348206,127.16505432,8,12,67
ST-1626,1059. 래미안 강동팰리스(102동),37.53822708,127.13174438,8,15,53
ST-1620,1060. 천일초교 사거리,37.5446701,127.13267517,7,6,117
ST-1621,1061. 천호초교 입구 사거리(일주빌딩),37.54689789,127.13466644,12,8,150
ST-1762,1063.강동롯데캐슬퍼스트 아파트(관리동),37.55666351,127.14273834,11,10,110
ST-1763,1064.중앙보훈병원역 1번출구,37.52779388,127.14764404,0,10,0
ST-1764,1065.보훈병원 후문옆(더 원커피),37.53120804,127.1492691,2,10,20
ST-1765,1066.생태공원앞 교차로(조명탑),37.5377655,127.15201569,2,10,20
ST-1766,1067.한영중고앞사거리,37.54903412,127.15605164,2,10,20
ST-1767,1068.명일파출소,37.5536499,127.15622711,0,10,0
ST-1831,1070.(시립)고덕평생학습관,37.55570221,127.15792084,0,10,0
ST-1833,1072.고덕역 5번출구,37.55486298,127.15372467,0,22,0
ST-1835,1074.대명초교입구 사거리,37.54683685,127.14916229,37,15,247
ST-1836,1075.천동초교 삼거리,37.54136276,127.13718414,52,10,520
ST-1837,1076. 천동초교입구사거리 버스정류장(십자성마을 방면),37.5398941,127.14103699,66,10,660
ST-1838,1077.강동역 1번출구 앞,37.53627014,127.13246918,0,15,0
ST-1839,1078.둔촌사거리,37.52197647,127.13362122,19,25,76
ST-1840,1079.강일동입구교차로,37.56184387,127.17084503,102,10,1020
ST-1841,1080.천호지하주차장 5번 출입구,37.5368309,127.12841797,4,10,40
ST-1842,1081.트레빌빌딩,37.53699875,127.12953186,10,14,71
ST-1844,1083.광문고교사거리(아이파크),37.56036758,127.15659332,6,15,40
ST-1687,1084. 윤선생빌딩(JYP사옥),37.5239296,127.1291275,30,30,100
ST-1845,1085.래미안 솔베뉴(고덕로),37.55456924,127.14587402,8,20,40
ST-1846,1086.래미안 솔베뉴(구천면로),37.55059814,127.14545441,14,10,140
ST-1848,1088.풍납사거리(강동),37.52812195,127.11952209,32,12,267
ST-1849,1089.고덕 래미안힐스테이트(201동),37.56060028,127.146698,21,15,140
ST-1850,1090.상일동역 2번출구 앞,37.5567894,127.16614532,45,17,265
ST-507,1101. 상사마을 버스정류장(아라대교방면),37.58161163,126.79859924,4,10,40
ST-508,1102. 방화사거리 마을버스 버스정류장,37.57364273,126.81180573,24,10,240
ST-831,1103. 방화역 4번출구앞,37.57710648,126.81199646,29,10,290
ST-509,1105. 방화근린공원,37.58162308,126.81265259,1,10,10
ST-824,1106. 신방화사거리,37.57256317,126.81642151,77,18,428
ST-510,1108. 공항시장역 2번출구 뒤,37.56387329,126.81060791,31,8,388
ST-511,1109. 공항시장역 4번출구,37.56334686,126.81048584,7,6,117
ST-828,1110. 공항중학교앞,37.56220245,126.81624603,18,15,120
ST-512,1111. 마곡엠밸리6_7단지 마곡중학교,37.56698227,126.82180023,5,20,25
ST-513,1112. 마곡엠밸리4단지 정문,37.56857681,126.8247757,0,15,0
ST-514,1113. 서남환경공원 버스정류장,37.57312393,126.8223877,55,15,367
ST-834,1117. 등촌5단지아파트 버스정류장,37.55819702,126.84426117,10,10,100
ST-516,1118. 증미역 3번출구뒤(등촌두산위브센티움오피스텔),37.55746841,126.86144257,11,10,110
ST-517,1119. 염창동 한마음아파트 앞,37.55425262,126.86756134,19,6,317
ST-518,1120. 대림경동아파트앞,37.564785,126.85464478,56,25,224
ST-519,1121. 가양레포츠센터 앞,37.55947876,126.86437988,29,15,193
ST-522,1124. 발산역 6번 출구 뒤,37.55817795,126.8384552,2,6,33
ST-523,1126. 우장산역 1번출구옆(우장산아이파크105동앞),37.54890823,126.83656311,0,7,0
ST-524,1127. 화곡역 버스정류장,37.54098129,126.83854675,14,10,140
ST-829,1128. 화곡역 6번출구,37.54141235,126.84022522,3,10,30
ST-525,1129. 화곡역 1번 출구 앞,37.542099,126.84021759,2,7,29
ST-526,1130. 화곡본동시장 버스정류장,37.54275131,126.84262085,4,7,57
ST-528,1132. 등촌역 7번출구,37.55110931,126.8637085,22,10,220
ST-530,1135. 강서구의회,37.54653168,126.86254883,31,16,194
ST-531,1136. 등촌2파출소,37.54456711,126.86196899,1,8,13
ST-532,1137. 등촌2동주민센터,37.54126358,126.8633728,3,10,30
ST-533,1139. 용문사 버스정류장,37.53852081,126.86343384,6,8,75
ST-534,1140. 목동사거리 버스정류장,37.53139877,126.86360931,28,17,165
ST-535,1141. 곰달래 문화복지센터 A,37.52906036,126.84848022,85,20,425
ST-536,1145. 곰달래 문화복지센터 B,37.52891922,126.8480835,29,10,290
ST-538,1148. 볏골공원,37.54146957,126.84477997,23,10,230
ST-975,1149. 신방화역환승주차장,37.56728363,126.81827545,1,13,8
ST-1062,1150. 송정역 1번출구,37.56153107,126.81069946,7,7,100
ST-1063,1151. 마곡역1번출구,37.56020737,126.82414246,1,30,3
ST-1064,1152. 마곡역교차로,37.55831146,126.82652283,0,36,0
ST-1065,"1153. 발산역 1번, 9번 인근 대여소",37.55894852,126.83717346,1,32,3
ST-1067,1155. 기쁜우리복지관,37.56925964,126.84841919,26,10,260
ST-1069,1157. 강서구청,37.55065918,126.84976959,68,8,850
ST-1249,1158. 가양역 8번출구,37.56103516,126.85481262,38,20,190
ST-1250,1159. 서서울모터리움 앞,37.56585312,126.84659576,18,20,90
ST-1251,1160. 양천향교역 7번출구앞,37.56768036,126.84089661,6,20,30
ST-1252,1161. 강서면허시험장 앞,37.54969406,126.819664,0,10,0
ST-1253,1162. 공항초등학교건너편,37.56267929,126.82047272,61,10,610
ST-1338,1165. 마곡중학교 후문,37.56844711,126.82164764,21,20,105
ST-1351,1166. 강서구립등빛도서관,37.56274414,126.84267426,48,19,253
ST-1352,1167. 마곡수명산파크3단지 교차로,37.55350876,126.8258667,54,25,216
ST-1402,1168. 마곡엠밸리10단지 앞,37.56029129,126.8187561,23,14,164
ST-1506,1169. 염창역 1번 출구,37.54719925,126.87448883,8,8,100
ST-1507,1170. 강서구보건소,37.54917908,126.8687973,6,11,55
ST-1508,1171. 염창동 새마을금고 건너편,37.55004883,126.87316132,15,8,188
ST-1509,1172. 가양3동 주민센터,37.56124878,126.86058044,34,8,425
ST-1510,1173. 강서구청사거리(SH타워),37.55673599,126.85307312,68,15,453
ST-1511,1174. 강서구청사거리(부민병원),37.55661392,126.85116577,8,9,89
ST-1512,1175. 대한항공 인력개발센터,37.55437851,126.85753632,1,15,7
ST-1514,1177. 수명중․고교,37.55010986,126.82367706,20,15,133
ST-1515,1178. 개화산역 2번 출구,37.57247162,126.8061676,15,10,150
ST-1517,1180. 마곡엠밸리 15단지(1502동) 건너편,37.55746841,126.82971954,15,15,100
ST-1518,1181. 농수산식품공사 (강서지사),37.55104446,126.8184967,5,10,50
ST-1519,1182. KBS 스포츠월드,37.55687714,126.84880829,22,20,110
ST-1520,1183. 강서대학교,37.54828644,126.85356903,0,10,0
ST-1645,1184. 마곡13단지,37.55644989,126.815979,64,26,246
ST-1646,1185. 등촌9단지,37.56290054,126.84947205,41,20,205
ST-1647,1186. 송정중학교,37.55472946,126.81609344,30,15,200
ST-1676,1187. 강서수산물도매시장,37.55302048,126.818367,7,15,47
ST-1708,1188. 롯데중앙연구소,37.57138062,126.82833862,3,8,38
ST-1709,1190. 마곡역 교차로(2번출구),37.5605011,126.82665253,0,14,0
ST-1689,"1191. 마곡역 버스정류장(마곡나루역1번출구, 웰튼병원 방면)",37.5602417,126.8271637,0,13,0
ST-1710,1192. 마곡수명산파크 209동 건너편,37.55545044,126.82689667,58,20,290
ST-1688,1193. 마곡센트럴타워 1차,37.55947113,126.83207703,0,51,0
ST-1712,1195. 코오롱One&Only타워,37.56412888,126.83431244,6,24,25
ST-1713,1196. 서울식물원(문화센터) 건너편,37.56824112,126.83583069,0,11,0
ST-1714,1197. 엠펠리체 호텔 건너편,37.56026077,126.83546448,1,20,5
ST-1715,1198. LG 사이언스파크,37.56254959,126.82743835,3,31,10
ST-1694,1199. 우장산역 3번출구,37.54782104,126.83612823,5,13,38
ST-1695,1200. 개화광역환승센터,37.57844925,126.79897308,6,10,60
ST-838,1201. 가락시장역 3번 출구,37.49317932,127.11854553,12,15,80
ST-737,1203. 밀리아나2빌딩 앞,37.49372864,127.12062073,5,20,25
ST-930,1204. 거여역 3번출구,37.49334335,127.14472961,3,10,30
ST-539,1205. 종합운동장역 4번출구,37.51042938,127.07137299,2,15,13
ST-540,1206. 9호선종합운동장역 9번출구,37.51128006,127.07823944,2,20,10
ST-738,1207. 마천중앙시장,37.49975586,127.15250397,23,6,383
ST-541,1208. 풍납현대아파트쉼터,37.52974701,127.1199646,30,25,120
ST-542,1209. 잠실나루역 (2번 출구 쪽),37.52045059,127.10420227,2,20,10
ST-891,1210. 롯데월드타워(잠실역2번출구 쪽),37.51312637,127.10095978,3,30,10
ST-839,1212. 송파역 2번 출구앞,37.49941254,127.11286926,11,10,110
ST-543,1213. 백토공원 앞,37.50831985,127.13321686,4,12,33
ST-740,1214. 오금역 7번 출구 인근,37.50259399,127.1276474,1,10,10
ST-544,1215. 올림픽공원역 1번출구 앞,37.51657104,127.13153839,0,15,0
ST-545,1217. 송파파인타운 7단지,37.47930527,127.12979889,2,15,13
ST-892,1218. 방이역 4번출구,37.50896835,127.12583923,1,12,8
ST-546,1220. 잠실근린공원,37.50569153,127.08403778,40,15,267
ST-933,1221. 삼전역 4번출구,37.50419998,127.08753204,22,9,244
ST-547,1222. 잠실새내역 5번 출구 뒤,37.51198196,127.08505249,13,23,57
ST-548,1224. 아시아지하보도 2번 출구,37.51216888,127.07893372,6,15,40
ST-894,1226. 잠실4동 주민센터 옆,37.52007675,127.11236572,64,10,640
ST-895,1227. 거여역 8번출구 뒤,37.49312592,127.14382172,4,10,40
ST-896,1228. 마천사거리 ,37.49769974,127.14620209,46,10,460
ST-549,1229. 송파체육문화회관 앞,37.49068832,127.14312744,1,15,7
ST-897,1230. 송파중학교 정문,37.49567032,127.13059235,0,10,0
ST-840,1231. 잠실역 6번출구,37.51408768,127.09902954,3,13,23
ST-550,1232. 잠실주공 521동 건너편,37.51184082,127.09568787,0,10,0
ST-551,1233. 잠실3거리(갤러리아팰리스),37.51050949,127.09336853,0,9,0
ST-553,1235. 잠실트리지움310동 옆,37.50887299,127.08716583,10,14,71
ST-899,1239. 문정 법조단지3,37.48084259,127.11801147,2,13,15
ST-900,1240. 문정 법조단지4,37.48057556,127.11856842,0,10,0
ST-901,1241. 문정 법조단지5,37.48123932,127.11979675,1,10,10
ST-902,1242. 문정 법조단지6,37.48163223,127.11916351,1,10,10
ST-903,1243. 문정 법조단지7,37.4845314,127.12016296,2,29,7
ST-904,1244. 문정 법조단지8,37.48153687,127.12212372,2,11,18
ST-905,1245. 문정 법조단지9,37.47946548,127.12532806,1,10,10
ST-906,1246. 문정 법조단지10,37.47750854,127.12632751,1,30,3
ST-907,1247. 문정 법조단지11,37.4788208,127.12351227,2,15,13
ST-908,1248. 방이초등학교,37.51396179,127.12167358,2,25,8
ST-981,1250.문정2동 주민센터,37.48987198,127.11083984,1,10,10
ST-1070,1251. 석촌역 2번출구,37.50593185,127.10774994,0,10,0
ST-1072,1253. 오금역 3번 출구 뒤,37.50165176,127.12818146,0,10,0
ST-1075,1256. 문정현대아파트 교차로,37.49113083,127.12580872,2,8,25
ST-1077,1258. 가락미륭아파트 앞,37.49319839,127.1289978,0,10,0
ST-1078,1259. 방이역 1번출구,37.50898361,127.12659454,4,20,20
ST-1079,1260. 방이동 한양3차아파트 옆,37.50630188,127.12139893,11,8,138
ST-1081,1262. 송파여성문화회관 앞,37.50580215,127.10971832,10,10,100
ST-1082,1263. 장지공영차고지,37.48054123,127.1370163,5,10,50
ST-1083,1264. 천호역 10번 출구 앞,37.53858185,127.12280273,2,8,25
ST-1084,1265. 문정동 근린공원,37.48598862,127.12476349,1,10,10
ST-1085,1266. 문정동 글샘 공원,37.47880936,127.12000275,1,10,10
ST-1086,1267. 올림픽공원 남2문 앞,37.51424026,127.12306976,1,14,7
ST-1087,1268. 몽촌토성역 1번출구 옆,37.51728821,127.11419678,3,15,20
ST-1088,1269. 리센츠아파트 ,37.51194382,127.09121704,16,10,160
ST-1089,1271. 송파도서관,37.49998474,127.13539124,4,15,27
ST-1092,1274. 영파여고 앞,37.53284836,127.12104797,5,20,25
ST-1367,1275. 거여초등학교 옆,37.50458908,127.13936615,27,15,180
ST-1408,1277. 성내7교,37.50562668,127.1364212,11,15,73
ST-1409,1278. 송파구청 교차로,37.51586151,127.10704803,1,16,6
ST-1410,1279. 마천금호어울림 1차아파트 건너편,37.49751663,127.15467834,5,10,50
ST-1413,1282. 송파소방서 맞은편(성내4교),37.49987411,127.14147949,48,10,480
ST-1414,1283. 오금공원 사거리,37.50541306,127.13169098,0,8,0
ST-1416,1285. 위례별 유치원 뒤,37.4774704,127.14459229,11,10,110
ST-1417,1286. 위례중앙푸르지오 1단지 앞,37.47437668,127.14067078,0,10,0
ST-1418,1287. 위례아이파크 101동 맞은편,37.47746658,127.14151001,6,8,75
ST-1419,1288. 문정중교 사거리,37.48799896,127.13108826,2,15,13
ST-1422,1289. 풍납토성 서성벽터B,37.53147125,127.11109161,21,10,210
ST-1579,1290. 위례송파꿈에그린아파트24단지 앞 성벽 다리 밑,37.47458267,127.13754272,17,10,170
ST-1580,1291. 서울체육고등학교 앞,37.52193832,127.13186646,4,30,13
ST-1582,1293. 석촌호수 서호 사거리,37.50656128,127.09655762,34,14,243
ST-1584,1295. 잠실역 8번출구,37.51396179,127.10030365,1,8,13
ST-1585,1296. 석촌호수교차로 (송파나루근린공원 앞),37.50867844,127.1034317,0,10,0
ST-1586,1297. 석촌호수교차로(동호 팔각정 앞),37.50920105,127.10411835,0,15,0
ST-1588,1299. 송파소방서 (방이119안전센터),37.51987839,127.13671112,5,15,33
ST-1589,1300. 오륜사거리,37.50693893,127.13922119,14,15,93
ST-825,1302. 한성대입구역6번출구 뒤,37.58876419,127.00630951,3,5,60
ST-931,1303. 돈암초교 입구,37.59169388,127.01249695,12,10,120
ST-826,1304. 만해공원,37.59440231,126.99230957,0,10,0
ST-947,1305. 성북구청,37.58932877,127.01643372,26,15,173
ST-842,1306. 한성대입구역2번출구,37.58844757,127.00670624,2,10,20
ST-827,1308. 안암로터리 버스정류장 앞,37.58259201,127.02897644,1,16,6
ST-559,1314. 정릉꿈에그린1단지 201동 앞,37.60243988,127.01168823,10,8,125
ST-560,1315. 고려사대부속중고 정문,37.60776138,127.00328064,0,10,0
ST-562,1316. 고려사대부속중고 건너편 ,37.60726166,127.00283813,0,10,0
ST-563,1318. 길음역 3번출구 뒤,37.60308456,127.0247879,7,14,50
ST-564,1319. 종암박스파크,37.60301971,127.03329468,32,10,320
ST-655,1321. 국민은행 종암동지점 앞,37.59328842,127.03666687,45,14,321
ST-565,1322. 래미안라센트아파트 103동 앞,37.59806824,127.03927612,36,10,360
ST-571,1325. 상월곡역 4번출구,37.60580826,127.04773712,8,9,89
ST-572,1326. 상월곡역 1번출구,37.60606766,127.0473175,9,10,90
ST-574,1327. 상월곡역 3번출구,37.60734177,127.05068207,31,10,310
ST-910,1328. 월곡역 3번출구,37.6026268,127.04163361,6,10,60
ST-578,1332. 석계역 5번출구 건너편,37.61292267,127.06640625,25,8,313
ST-579,1333. 석관초등학교 앞,37.61029053,127.05888367,32,20,160
ST-580,1334. 석관동주민센터 앞,37.61299896,127.06130981,12,10,120
ST-1200,1336. 성북3교 위,37.59171295,127.01355743,8,9,89
ST-1201,1337. 돈암성당 옆,37.59039307,127.01716614,15,13,115
ST-1202,1338. 용문2교 옆,37.58693314,127.02068329,14,15,93
ST-1203,1339. 삼성전자서비스 성북센터,37.61057281,127.03366852,1,9,11
ST-1204,1340. 광운초등학교 앞,37.61784363,127.05500031,21,11,191
ST-1206,1342. 성북쉼터 앞,37.59261703,126.99793243,0,10,0
ST-1207,1343. 한성대7번출구 앞,37.58924866,127.00737762,3,8,38
ST-1208,1344. 아리랑시네센터 앞,37.60028839,127.01370239,0,10,0
ST-1210,1346. 길음8골어린이공원 옆,37.60897827,127.02024841,8,15,53
ST-1211,1347. 길음래미안아파트817동 상가 앞,37.60710526,127.02149963,8,10,80
ST-1212,1348. 성북제일새마을금고 본점 앞,37.60475159,127.02275848,4,12,33
ST-1213,1349. 월계2교 버스정류장 앞,37.6211853,127.05215454,8,10,80
ST-1215,1351. 안암2교 옆,37.57936478,127.02436066,19,8,238
ST-1216,1352. e 편한세상 보문아파트 내,37.58388138,127.01709747,8,8,100
ST-1217,1353. 금호어울림센터힐 내,37.60083008,127.02355194,5,8,63
ST-1317,1354. 고려대학교 2번출구,37.5907135,127.03619385,5,22,23
ST-1383,1357. 북한산보국문역,37.61207199,127.00813293,14,10,140
ST-1384,1358. 정릉도서관 앞,37.60478973,127.01058197,2,7,29
ST-1386,1360. 정릉역,37.60309601,127.01350403,4,10,40
ST-1424,1361. 홍익중고 입구,37.59296799,127.00223541,7,20,35
ST-1455,1363. 보문4교 인근,37.58375168,127.02194977,32,25,128
ST-1456,1364. 성북동 치안센터 앞,37.59017181,127.00408936,9,10,90
ST-1457,1365. 선잠단지 앞,37.5933609,126.9990921,3,10,30
ST-1458,1366. 일신초등학교 옆,37.59972,127.04038239,13,10,130
ST-1459,1367. 길음문화복합미디어센터,37.60429764,127.02261353,6,10,60
ST-1460,1368. 성신여대입구 교차로,37.59139633,127.02015686,16,10,160
ST-1634,1370. 복자사랑 피정의 집,37.59453964,126.99520874,0,10,0
ST-1636,1372. KEB은행 고대점,37.58644485,127.03160095,0,20,0
ST-1637,1373. 성북구보건소 건너편,37.60235596,127.03907776,20,8,250
ST-1723,1375. 생명의 전화 종합복지관 앞 교차로,37.60390854,127.0373764,31,20,155
ST-1745,1376. 한국과학기술연구원 중문,37.59730911,127.0437851,0,7,0
ST-1746,1377. 한국과학기술연구원 북문,37.60418701,127.04549408,3,10,30
ST-2221,1379.길음뉴타운푸르지오아파트 3단지,37.60929489,127.01847839,0,10,0
ST-2222,1380.월곡역 5번출구 앞,37.60108566,127.04123688,21,15,140
ST-2223,1381.석계역 4번출구 뒤,37.61478424,127.06700134,97,18,539
ST-2406,1382.래미안월곡아파트 입구,37.60866547,127.03627014,24,10,240
ST-2225,1384.성신여대입구역 5번출구,37.59282684,127.01628876,24,13,185
ST-2226,1385.성신여대입구역 3번출구 앞,37.59236526,127.01628876,34,10,340
ST-2227,1386.동선고가차도 초입,37.59415817,127.01896667,5,10,50
ST-2229,1388. 돈암초교입구 버스정류장(한성대입구역 방면),37.59088135,127.01170349,8,10,80
ST-2231,1390.석관래미안아트리치,37.60646057,127.06162262,44,10,440
ST-2232,1391.성북청소년센터,37.61688232,127.05606842,26,10,260
ST-2233,1392.돈암삼성풍림아파트,37.5970993,127.02262878,1,10,10
ST-2234,1393.돈암육교 하단,37.59818268,127.0211792,0,10,0
ST-2235,1394.길음뉴타운 래미안9단지,37.60242462,127.01998138,8,10,80
ST-2236,1395.래미안장위포레카운티(102동),37.61817932,127.05183411,24,20,120
ST-2237,1396.래미안장위퍼스트하이(513동),37.61844254,127.05145264,50,30,167
ST-558,1401. 극동늘푸른아파트,37.61473846,127.07636261,32,15,213
ST-561,1402. 금란주차장 앞,37.60007095,127.10233307,9,10,90
ST-566,1403. 중화빌딩 앞 (동부시장),37.59424973,127.07657623,19,15,127
ST-599,1404. 동일로 지하차도,37.59529877,127.08003235,6,10,60
ST-568,1405. 망우역 1번출구,37.59909821,127.09294891,11,10,110
ST-847,1407. 먹골역 1번출구 뒤,37.61151123,127.07788849,24,10,240
ST-570,1408. 먹골역 6번출구 앞,37.61072159,127.0774765,26,10,260
ST-573,1410. 면목 대원칸타빌아파트,37.57778168,127.09018707,16,10,160
ST-912,1411. 상봉시장앞 교차로 한성빌딩 앞,37.59254074,127.08673859,5,10,50
ST-849,1414. 사가정역 2번출구,37.58098984,127.08824158,1,9,11
ST-850,1416. 상봉역 3번출구,37.59521866,127.08599854,7,8,88
ST-583,1418. 새솔초등학교,37.61743927,127.10901642,9,10,90
ST-585,1420. 신내어울공원 앞,37.61394501,127.09770203,17,15,113
ST-586,1421. 신내역 4번출구,37.61246109,127.1033783,11,13,85
ST-587,1422. 신내우디안아파트 1단지,37.62009811,127.10646057,0,10,0
ST-588,1424. 양원역 2번출구,37.6063118,127.10774231,1,10,10
ST-589,1425. 신성미소지움아파트,37.58745956,127.09597015,20,10,200
ST-590,1426. 면목도시개발아파트 1동 앞,37.57318497,127.08652496,1,10,10
ST-852,1427. 용마산역 1번출구,37.57310486,127.08609772,0,10,0
ST-853,1428. 원묵고등학교,37.61602402,127.08596802,1,10,10
ST-854,1429. 장안중학교,37.59995651,127.08000183,20,15,133
ST-855,1430. 중랑구청,37.60615158,127.09259796,14,20,70
ST-856,1431. 중랑구청 사거리,37.60649872,127.09545135,0,10,0
ST-857,1433. 중화역 2번출구,37.60207748,127.07958221,8,10,80
ST-593,1435. 능산삼거리,37.60868073,127.10079193,3,10,30
ST-594,1436. 동원베네스트 건물 앞,37.60810089,127.10118103,30,15,200
ST-595,1437. 늘푸른공원 앞,37.5834198,127.07992554,38,15,253
ST-596,1438. 홈플러스 신내점 앞,37.61616898,127.09348297,5,15,33
ST-942,1440. 면목2동 사거리,37.58637238,127.0800705,24,10,240
ST-584,1441. 신내능말공원,37.61670685,127.11026001,11,10,110
ST-1093,1442. 중랑구청 중화동 별관 앞,37.59859085,127.07981873,34,8,425
ST-1095,1444. 면목4치안센터,37.57402802,127.08054352,19,10,190
ST-1096,1445. 용마지구대 A,37.5799408,127.07939911,14,10,140
ST-1097,1446. 중랑전화국 교차로,37.59130096,127.0803299,19,10,190
ST-1098,1447. 면목역 3번출구,37.58890152,127.08728027,27,17,159
ST-1099,1448. 코스트코 상봉점,37.59732056,127.08979797,17,15,113
ST-1332,1449. 상봉역 1번출구,37.59655762,127.08583832,5,15,33
ST-1333,1450. 화랑대역 7번출구,37.61963654,127.08504486,13,10,130
ST-1334,1451. 중랑세무서,37.59275818,127.07266998,32,10,320
ST-1335,1452. 겸재교 진입부,37.58565521,127.07505035,31,25,124
ST-1345,1453. 중랑캠핑숲,37.60460281,127.10925293,11,9,122
ST-1346,1454. 한국전력공사(동대문 중랑지사),37.6073494,127.07859039,28,10,280
ST-1375,1455. 상봉역 2번 출구,37.59632874,127.08589935,26,10,260
ST-1380,1456. 상아빌딩(우림시장 교차로),37.59511185,127.10032654,16,10,160
ST-1381,1457. 동원사거리,37.58975983,127.09323883,6,18,33
ST-1451,1458. 상봉터미널2,37.59733963,127.09308624,23,9,256
ST-1452,1459. 용마한신아파트사거리,37.57984543,127.09276581,0,6,0
ST-2282,1461.동양엔파트 앞,37.593853,127.07507324,3,12,25
ST-2283,1462.동부시장 북문 앞,37.59386826,127.07652283,13,9,144
ST-2285,1464.중화역 4번출구,37.60305405,127.07900238,18,15,120
ST-2287,1466.두산대림아파트 삼거리,37.61882401,127.08757019,23,10,230
ST-2288,1467.sk신내 주유소앞(용마산로),37.61362076,127.10115051,14,10,140
ST-2289,1468.먹골역 7번 출구,37.6114769,127.07739258,22,6,367
ST-2290,1469.먹골역 4번출구,37.60982132,127.07813263,47,20,235
ST-2291,1470.중화동 우리은행 앞,37.60520172,127.07858276,43,20,215
ST-2292,1471.동양쇼핑 정류소 앞,37.61535263,127.07849121,54,10,540
ST-2293,1472.영성빌딩(PAT),37.60408401,127.07923126,8,8,100
ST-2294,1473.중랑역 1번 출구(중화문화복지센터),37.59489059,127.07495117,35,10,350
ST-2295,1474.서울중랑우체국,37.59581375,127.08283997,0,9,0
ST-2298,1477.면목삼익아파트 앞,37.57598495,127.0796051,11,10,110
ST-2299,1478.홈플러스 상봉점 앞,37.59832764,127.0922699,11,15,73
ST-2300,1479.면목 홈플러스 2 ,37.58105469,127.08209229,7,10,70
ST-2301,1480. 용마지구대 B,37.58111191,127.08010101,17,15,113
ST-948,"1501. 미아역 3번,4번 출구 사이",37.62607956,127.02648163,0,9,0
ST-643,1503. 강북구청사거리(수유역 8번출구),37.63926315,127.02672577,0,14,0
ST-644,1504. 삼양시장오거리,37.62415695,127.01862335,3,10,30
ST-645,1506. 강북문화예술회관,37.64032745,127.01335907,12,15,80
ST-859,1509. 서울북부수도사업소,37.63437653,127.03575134,2,10,20
ST-860,1510. 번동주공5단지 관리사무소 앞,37.63371658,127.03551483,10,10,100
ST-862,1512. 강북중학교 앞,37.64473724,127.02656555,24,20,120
ST-646,1514. 강북구청 사거리 버스정류소 앞,37.63880539,127.02835846,5,10,50
ST-648,1515. 송천동 주민센터,37.61828613,127.02404785,12,10,120
ST-652,1516. 우이동길마을마당,37.6397934,127.01685333,9,10,90
ST-654,1518. 수유2동은행빌딩 앞,37.64308548,127.01616669,9,8,113
ST-651,1519. 장미원시장 건너편,37.64545059,127.01561737,8,10,80
ST-650,1520. 수유중앙시장,37.63986206,127.022789,10,7,143
ST-647,1525. 미아동 복합청사,37.62714005,127.02669525,1,10,10
ST-1100,1526. 강북종합시장 앞,37.64173889,127.02462769,9,8,113
ST-1101,1527. 미아역 1번 출구 뒤,37.62733459,127.02605438,2,10,20
ST-1102,1528. 삼각산동 주민센터,37.61503601,127.02069855,6,10,60
ST-1103,1529. 미아동 한국전력공사,37.63018036,127.02490997,10,15,67
ST-1104,1530. 광산사거리,37.64355087,127.0223465,18,13,138
ST-1105,1531. 미아사거리 1번 출구,37.61395645,127.03025055,1,10,10
ST-1106,1532. 번3동 주민센터 교차로,37.62635422,127.0474472,25,10,250
ST-1107,"1533. 번동 주공3, 4단지 교차로",37.62991714,127.04091644,34,10,340
ST-1109,1535. 효성인텔리안 앞,37.6362915,127.02337646,2,10,20
ST-1110,1536. 번동 두산위브 101동 옆,37.63626099,127.03217316,15,20,75
ST-1387,1537. 북한산 우이역,37.66366577,127.01242828,3,10,30
ST-1388,1538. 솔밭공원역,37.65615845,127.01313782,3,8,38
ST-1389,1539. 4.19민주묘지역,37.64967346,127.01345062,4,10,40
ST-1390,1540. 가오리역,37.64167023,127.01688385,5,8,63
ST-1391,1541. 삼양역,37.62652969,127.01805878,3,10,30
ST-1392,1542. 삼양사거리역,37.62155151,127.02037048,2,10,20
ST-1423,1543. 수유1동 주민센터,37.63018799,127.01773834,15,10,150
ST-1665,1546. 송천동우체국,37.61545944,127.02970123,7,10,70
ST-1724,1547. 꿈의숲 롯데캐슬,37.61775208,127.03570557,6,10,60
ST-1725,1548. 북서울 꿈의숲 서문,37.62268829,127.03781128,0,15,0
ST-2123,1550.삼각산아이원아파트(105동 옆),37.61522293,127.01850891,12,10,120
ST-2124,1551.4.19탑 앞,37.64686203,127.00881195,3,8,38
ST-2125,1552. 강북구청사거리,37.63920212,127.02723694,0,8,0
ST-2126,1553.서울북부고용노동지청,37.63520432,127.03396606,16,15,107
ST-2127,1554.번동사거리,37.63539124,127.03455353,4,10,40
ST-2129,1557.신창교,37.63238144,127.03930664,14,10,140
ST-2130,1558.강북문화정보도서관,37.62552643,127.037323,4,10,40
ST-2132,1560. 도봉세무서 앞,37.6198082,127.02852631,7,10,70
ST-2133,1564.4.19민주묘지역 1번출구,37.64959717,127.01384735,12,6,200
ST-2134,1565.수유사거리,37.63561249,127.022995,1,15,7
ST-2136,1568.4.19민주묘지 입구사거리,37.64793396,127.01457214,13,14,93
ST-2137,1569.수유역2번출구,37.63796997,127.02590179,1,10,10
ST-2401,1571.북서울 꿈의 숲 입구,37.62657166,127.03864288,11,10,110
ST-2402,1572. 우이동 먹거리마을,37.66446304,127.01184082,3,10,30
ST-2403,1573.현대성우아파트 옆,37.61666489,127.02210999,2,10,20
ST-2405,1574.송중초등학교 옆,37.61669922,127.03049469,7,8,88
ST-600,1601. 석계역 문화광장 내 자전거 보관소,37.61518097,127.06464386,5,10,50
ST-913,1602. 광운대역 앞,37.62266159,127.06189728,30,13,231
ST-866,1605. 헬스케어,37.63162231,127.06161499,12,10,120
ST-602,1606. 태릉입구역 3번출구 ,37.61917114,127.07492828,1,10,10
ST-735,1608. 공릉역 1번 출구 앞,37.62661362,127.07275391,4,9,44
ST-603,1610. 화랑대역 2번출구 앞,37.62036896,127.08364105,23,20,115
ST-604,1611. 과기대 입구(우),37.62957382,127.07678986,2,25,8
ST-605,1616. 하계2동 공항버스정류장 옆,37.63510895,127.06832886,4,10,40
ST-606,1617. 하계동 중평어린이공원 앞,37.63756943,127.06315613,58,7,829
ST-736,1619. 중계동 하나프라자빌딩 앞(중1-1),37.64902115,127.07640839,0,10,0
ST-914,1625. 상계역 3번출구,37.65999985,127.07296753,1,20,5
ST-915,1627. 수락산역 4번출구,37.67694092,127.05509949,0,12,0
ST-868,1628. 노일초등학교 앞,37.67456055,127.05513763,8,5,160
ST-869,1630. 수연빌딩 앞,37.67625046,127.05550385,5,10,50
ST-608,1634. 당고개공원 대여소,37.66846085,127.07714844,4,15,27
ST-609,"1635. 상계3,4동 주민센터 대여소",37.67271042,127.0831604,1,6,17
ST-610,1636. 상계주공2단지 버스정류장 옆,37.64921188,127.06176758,0,10,0
ST-611,1637. KT 전화국 버스정류장 옆,37.6546669,127.06372833,0,9,0
ST-612,1639. 희성오피앙,37.68031311,127.05506897,14,10,140
ST-971,1640. 한내근린공원 북측,37.62386322,127.06848907,21,9,233
ST-970,1641. 한내근린공원 남측,37.62155533,127.06951141,21,15,140
ST-964,1642. 서울여대 남문,37.62531662,127.08813477,7,7,100
ST-1111,1643. 태릉입구역 8번출구,37.61736679,127.07521057,1,10,10
ST-1114,1646. 삼육대 입구,37.63848877,127.10790253,4,10,40
ST-1118,1650. 중계근린공원내,37.63957977,127.06510162,38,25,152
ST-1119,1651. 상계동 우방유쉘아파트 앞,37.67237473,127.05599213,8,20,40
ST-1120,1652. 파르코 앞,37.68000031,127.05558014,2,10,20
ST-1121,1653. 노원역1번출구,37.65620041,127.06362152,3,10,30
ST-1122,1654. 당고개입구 오거리,37.66379166,127.07544708,0,15,0
ST-1123,1655. 공릉1단지아파트,37.63111115,127.07015991,45,15,300
ST-1124,1656. 중앙하이츠 아파트 입구,37.65501785,127.06750488,0,12,0
ST-1125,1657. 노원구청 ,37.65404892,127.05732727,0,20,0
ST-1128,1660. 서울시립과학관,37.64207077,127.07662201,0,8,0
ST-1278,1661. 당현천근린공원,37.64963913,127.06560516,0,10,0
ST-1279,1662. 노원역7번출구,37.65421677,127.05921173,0,20,0
ST-1280,1663. 동해문화예술관앞,37.61938095,127.0578537,17,25,68
ST-1281,1664. 노해근린공원내,37.64936066,127.0704422,1,10,10
ST-1282,1665. 양지근린공원앞,37.64699554,127.07640076,1,10,10
ST-1283,1666. 노원소방서인근,37.65578079,127.07177734,3,10,30
ST-1284,1667. 중계중학교,37.65449905,127.0743866,11,10,110
ST-1285,1668. 중계역 6번출구,37.64556503,127.06334686,2,10,20
ST-1286,1669. 중계역 3번출구,37.64291382,127.06487274,4,9,44
ST-1287,1670. 노원경찰서교차로,37.64340973,127.07183838,5,20,25
ST-1288,1671. 인덕대학교,37.62934875,127.05482483,9,15,60
ST-1289,1672. 상계동수락리버시티,37.68859863,127.05340576,13,15,87
ST-1291,1674. 서울북부고용센터앞,37.65354919,127.05808258,1,15,7
ST-1348,1675. 월계문화체육센터,37.62694168,127.05513,5,9,56
ST-1349,1677. 육군사관학교  앞,37.62316513,127.09049988,15,15,100
ST-1395,1679. 삼육대 도서관,37.6428299,127.10666656,0,10,0
ST-1396,1680. 삼육대 제3과학관,37.64265442,127.10838318,2,7,29
ST-1425,1681. 현대6차 아파트,37.64580154,127.08226013,13,12,108
ST-1426,1682. 중계종합사회복지관 교차로,37.65745163,127.07680511,1,12,8
ST-1473,1683. 노원문화예술회관,37.65045929,127.08088684,7,5,140
ST-1474,1684. 태릉입구역 5번출구,37.61832047,127.07563019,6,20,30
ST-1475,1685. 불암고등학교 앞 횡단보도,37.64818954,127.08048248,5,6,83
ST-1476,1686. 상계주공10단지 종합상가 앞,37.66114044,127.05805206,0,15,0
ST-1639,1688. 마들역 7번출구,37.66566086,127.05729675,0,9,0
ST-1640,1689. 마들역 3번출구,37.66524887,127.05789185,0,10,0
ST-1641,1690. 도봉운전면허시험장 버스정류장 옆,37.6577301,127.05931091,0,10,0
ST-1642,1691. 노원정보도서관,37.66072845,127.06513214,5,10,50
ST-1672,1692. 온곡초교 교차로,37.66418839,127.06600952,19,10,190
ST-1740,1693. 원자력 병원,37.62818909,127.08210754,1,10,10
ST-2062,1696.수락리버시티4단지,37.68645096,127.05283356,15,10,150
ST-2063,1697.상계주공2단지 219동,37.65024948,127.05715179,7,10,70
ST-613,1702. 녹천역 1번출구 앞,37.64582062,127.05042267,25,10,250
ST-657,1703. 도봉산광역환승센터앞 ,37.68972015,127.04519653,1,10,10
ST-614,1705. 도봉구청 정문앞,37.66922379,127.04651642,2,8,25
ST-916,1706. 방학동우체국 건너편,37.66566467,127.0426712,9,10,90
ST-615,1707. 도봉구민회관,37.65446091,127.03851318,1,20,5
ST-658,1708. 도봉보건소사거리,37.65682983,127.03984833,0,7,0
ST-616,1709. 쌍문역4번출구 주변,37.65012741,127.03534698,9,17,53
ST-1129,1713. 쌍문동 이안아파트 앞,37.65165329,127.02848816,0,15,0
ST-1130,1714. 도봉문화정보도서관 삼거리,37.64463043,127.04460907,8,10,80
ST-1131,1715. 서울특별시교육청도봉도서관,37.65317917,127.01278687,1,20,5
ST-1132,1716. 창동역 1번출구 건너편,37.65420151,127.05072784,3,8,38
ST-1135,1719. 신도봉사거리 버스정류장,37.67328262,127.04399109,9,6,150
ST-1136,1720. 도봉구청 옆(중랑천변),37.66867065,127.04798126,9,27,33
ST-1292,1722. 창동청소년수련관,37.65779877,127.05004883,0,15,0
ST-1295,1725. 창1동주민센터,37.6475029,127.04331207,17,10,170
ST-1296,1726. 삼익세라믹아파트교차로,37.65858841,127.03520966,10,8,125
ST-1297,1727. 서울도봉초등학교인근,37.67867661,127.04076385,23,15,153
ST-1434,1728. 서울북부지방법원,37.67771912,127.04681396,6,10,60
ST-1461,1729. 도봉한신아파트 버스정류장,37.68400955,127.04579163,12,8,150
ST-1462,1730. 도봉산역 교차로 앞,37.68759155,127.04550171,1,8,13
ST-1463,1731. 도봉고등학교 맞은편,37.6876297,127.04221344,7,10,70
ST-1464,1732. 방학역사거리,37.66759872,127.04299927,5,10,50
ST-1465,1733. 방학사거리 (봄마당 앞),37.66297913,127.04193878,4,12,33
ST-1466,1734. 쌍문현대1차아파트 108동 앞,37.65814972,127.03266907,9,10,90
ST-1467,"1735. 도봉역 1,2번 출구사이 건너편",37.67911911,127.04498291,18,13,138
ST-1468,1736. 버스정류장 앞,37.65224075,127.0370636,0,12,0
ST-1469,1737. 신창시장,37.63970184,127.03883362,35,10,350
ST-1470,1738. 창동주공17단지 상가앞,37.6463089,127.052742,14,10,140
ST-1638,1741. 제일강산수산입구,37.64519882,127.03298187,10,20,50
ST-1726,1742. 북한산 코오롱 하늘채,37.64889145,127.02301788,24,10,240
ST-2088,1743.창동19단지아파트 관리사무소앞,37.65039062,127.05219269,6,10,60
ST-2089,1744.도봉소방서 옆,37.66480255,127.04302979,3,15,20
ST-2094,1749. ESA아파트 상가 앞,37.66627121,127.04598999,6,10,60
ST-2095,1750. 창포원 남쪽 입구,37.68826675,127.04889679,2,12,17
ST-2096,1751. 창원초등학교 교차로,37.6521225,127.04170227,7,15,47
ST-2097,1752. 창동 주공 4단지 입구 옆,37.64548111,127.04857635,20,6,333
ST-2099,1754. 창동시장입구 사거리,37.64689636,127.03343201,1,11,9
ST-2101,1756.서울북부광역등기국,37.65148544,127.04431915,2,10,20
ST-2102,1757.솔밭공원역 1번출구 앞,37.65568542,127.01338196,6,10,60
ST-2103,1758.솔밭공원역 1번출구 주변,37.65727997,127.0137558,7,10,70
ST-2104,1759.서울북부지방법원 앞,37.67721939,127.04863739,10,10,100
ST-2106,1761.방학중학교 앞,37.66562271,127.03108978,20,10,200
ST-2107,1762.북한산 한신휴플러스APT앞,37.65533829,127.04241943,25,25,100
ST-2110,1765.쌍문역 1번출구 주변,37.64966965,127.03561401,1,13,8
ST-2112,1767.방학초등학교 앞,37.66250992,127.03327942,27,10,270
ST-2113,1768.신동아타워 버스정류소,37.66208267,127.02874756,12,8,150
ST-2115,1770.도봉한신아파트 주변,37.68473816,127.0500412,14,15,93
ST-2116,1771.성원APT버스정류소,37.65796661,127.03009033,10,15,67
ST-2117,1772.시립도봉노인복지관 버스정류소,37.65805054,127.03575897,3,13,23
ST-2119,1774.정의여중고 버스정류소,37.65134811,127.034729,7,8,88
ST-2120,1775.신원리베르텔 앞,37.65128708,127.04554749,0,15,0
ST-619,1804. 독산역 2번출구 자전거주차장,37.46650314,126.88896942,26,10,260
ST-620,1805. 서울디지털운동장 앞,37.48228836,126.87776947,7,10,70
ST-621,1806. 에이스하이엔드타워9차 앞,37.48621368,126.87863922,5,10,50
ST-622,1808. 에이스하이엔드타워8차 앞,37.47320938,126.8849411,16,20,80
ST-623,1809. LG전자 별관동(호서대 벤처타워 맞은편),37.47143555,126.88537598,9,10,90
ST-624,1812. 갑을그레이트밸리 앞,37.47903061,126.88729858,13,10,130
ST-625,1814. 두산위브아파트 옆 상가건물 앞,37.47422028,126.89412689,25,8,313
ST-642,1819. 금천구청 앞 자전거거치대,37.45647812,126.89592743,3,10,30
ST-628,1820. 신한은행 시흥대로금융센터지점,37.4433403,126.90335846,16,10,160
ST-629,1821. 홈플러스 시흥점 맞은편 다비치안경 앞,37.45145798,126.90211487,41,10,410
ST-631,1823. W컨템포오피스텔앞,37.4589119,126.89859009,8,10,80
ST-633,1825. 한신아파트 앞 육교 아래,37.45470047,126.89105225,10,10,100
ST-634,1826. 한신코아 앞,37.45684052,126.88834381,38,10,380
ST-660,1827. 독산보도육교 앞 자전거 보관소,37.45672607,126.89306641,17,20,85
ST-635,1828. 독산동 한양수자인아파트 앞,37.47531891,126.89888763,2,10,20
ST-636,1829. 홈플러스 금천점 앞,37.4691391,126.89720154,24,10,240
ST-637,1830. 빅마켓 금천점 앞,37.4702301,126.89507294,36,19,189
ST-638,1831. 한국전력 구로금천지사 앞,37.47249985,126.89795685,15,10,150
ST-639,1833. 독산역 1번출구 A,37.46654129,126.89028168,4,10,40
ST-640,1834. 월드메르디앙 벤처센터 2차,37.47908401,126.87904358,4,10,40
ST-641,1835. STX V타워,37.47706985,126.88442993,9,10,90
ST-661,1836. 금천구립 독산도서관,37.46740341,126.90814209,15,7,214
ST-1140,1839. 수출의 다리 아래,37.47743607,126.88615417,5,20,25
ST-1141,1840. 솔브레인이엔지 뒤편,37.47555161,126.88845825,21,20,105
ST-1142,1841. 가산동 주민센터,37.4769516,126.89186859,50,12,417
ST-1143,1842. 한울중학교,37.46257401,126.90686035,12,12,100
ST-1144,1843. 독산고등학교,37.47709656,126.91113281,4,10,40
ST-1147,1846. 롯데캐슬골드파크1차 동문,37.46017075,126.89604187,35,15,233
ST-1148,1847. 독산주공 14단지 버스정류소,37.46093369,126.88716888,28,10,280
ST-1149,1848. 벽산 디지털밸리 5차,37.4762764,126.88539124,15,9,167
ST-1276,1849. 대륭포스트타워5차,37.48135376,126.88694,27,10,270
ST-1277,1850. 코오롱테크노밸리,37.48015976,126.8863678,17,10,170
ST-1403,1851. 가산디지털단지 9번출구 인근,37.48123169,126.88148499,0,10,0
ST-1534,1853. 청년취업사관학교앞,37.47248077,126.89586639,15,10,150
ST-1535,1854. 가산아네스트 오피스텔 앞,37.47817993,126.89740753,17,10,170
ST-1536,1855. 성지아파트 옆 도로변,37.45132065,126.89762115,21,10,210
ST-1537,1856. 모두의학교,37.47840881,126.90737152,8,10,80
ST-1538,1857. 주공14단지,37.46055984,126.88709259,19,10,190
ST-1648,"1858. 500번,507번 버스 종점 앞",37.43727112,126.90268707,11,10,110
ST-1734,1859. 대륭테크노타운 18차,37.4679985,126.88684082,14,13,108
ST-1932,1861.IBK기업은행 석수역 지점 앞,37.4369812,126.90329742,12,10,120
ST-1933,1862.MD호텔 앞,37.46134567,126.89758301,23,20,115
ST-1934,1863.위너스 스포츠클럽 골프연습장옆,37.46053696,126.89860535,25,9,278
ST-1935,1864.산호시티빌 옆,37.45652008,126.89955139,6,15,40
ST-1936,1865.금천구청앞(M빌딩),37.45633316,126.89645386,6,10,60
ST-1937,1866.서울안천초등학교 옆,37.45777893,126.88942719,3,10,30
ST-1938,1867.대륭포스트타워6차 앞,37.48101044,126.8841629,5,30,17
ST-1939,1868.우리은행 시흥남자동화점 앞,37.44785309,126.90288544,14,10,140
ST-1940,1869.롯데캐슬골드파크3차 301동 앞,37.45904922,126.89710236,15,15,100
ST-1941,1870.독산3동주민센터 앞,37.47507095,126.90335846,8,8,100
ST-662,1901. 신도림동주민센터 앞,37.50733185,126.87973022,31,10,310
ST-663,1904. 도림천역 1번 출구 앞,37.51424026,126.88287354,27,10,270
ST-664,1906. 신도림역 1번 출구 앞,37.50971985,126.89009857,4,20,20
ST-665,1907. 구일우성(아) 육교 밑,37.48963165,126.87625885,34,12,283
ST-666,1908. 해원리바파크 육교 밑,37.49528503,126.87216187,37,12,308
ST-667,1910. 낙원교회 맞은편,37.49750519,126.88437653,15,10,150
ST-668,1911. 구로디지털단지역 앞,37.48493958,126.90132141,6,18,33
ST-669,1912. 한신휴아파트 앞,37.48880005,126.89066315,35,13,269
ST-918,1914. 대림역4번출구,37.49440384,126.89444733,2,10,20
ST-671,1916. 구로중학교앞,37.49414062,126.88998413,20,10,200
ST-673,1920. 서울미래초등학교 사거리,37.50437927,126.88829803,16,14,114
ST-674,1924. 삼부르네상스파크빌,37.47874069,126.89509583,1,10,10
ST-919,1925. 동양미래대학교 정문 옆,37.49988937,126.86769867,34,20,170
ST-675,1928. 고척스카이돔구장 광장,37.49938202,126.86825562,14,10,140
ST-676,1929. 고척근린공원 고척도서관 앞,37.5038147,126.85195923,8,10,80
ST-677,1930. 개봉지구대 개봉치안센터,37.49768448,126.85372925,11,7,157
ST-920,1931. 개봉역2번출구 A,37.49499512,126.85825348,27,10,270
ST-678,1933. 개봉푸르지오아파트 상가,37.50170517,126.84728241,67,16,419
ST-870,1936. 개봉역 1번 출구 자전거보관서쪽,37.49428177,126.85921478,20,10,200
ST-679,1937. 한진아파트 입구,37.4860611,126.85201263,20,15,133
ST-871,1941. 오류동역 2번출구,37.49367142,126.84370422,27,10,270
ST-872,1943. 온수역 북측,37.49279022,126.82452393,6,10,60
ST-873,1946. 구로역 광장,37.50311661,126.88038635,3,10,30
ST-874,1951. 천왕이펜하우스 4단지 후문,37.48070526,126.83895874,21,15,140
ST-875,1952. 천왕연지타운2단지 앞,37.48210526,126.84572601,53,20,265
ST-876,1953. 천왕역 4번출구 뒤,37.48638535,126.83921051,17,20,85
ST-936,1955. 디지털입구 교차로,37.48288345,126.90103912,2,10,20
ST-1218,1956. 동아1차APT105동 버스정류장(신도림중학교 방면),37.51000977,126.88204956,43,15,287
ST-1219,1957. 구일고등학교 정문 ,37.49340057,126.87432861,34,15,227
ST-1220,1958. 강서수도사업소민원센터,37.49578094,126.89012146,21,10,210
ST-1221,1959. 구로구의회 앞,37.49651337,126.88957214,17,9,189
ST-1222,1960. 구로거리공원 동측(신도림역 방면),37.50284958,126.88948059,16,10,160
ST-1224,1962. 가리봉동주민센터,37.48160172,126.89279938,5,15,33
ST-1226,1964. 원메디타운 앞,37.49789047,126.86450195,25,10,250
ST-1227,1965. 삼환로즈빌아파트 105동 옆,37.49724197,126.85912323,17,15,113
ST-1228,1966. 한마을아파트 정문상가,37.49649811,126.86309814,29,10,290
ST-1229,1967. 참새공원(백곡경노당),37.5051384,126.84433746,16,10,160
ST-1231,1969. 궁동생태공원,37.50190353,126.82896423,9,10,90
ST-1233,1971. 오정초교 앞 보도육교,37.49072266,126.82639313,16,10,160
ST-1235,1973. 오리로와 서해안도로 교차로 앞,37.48859787,126.83649445,14,10,140
ST-1236,1974. 신도림2차e편한세상아파트 203동 앞,37.50518036,126.88253784,14,9,156
ST-1237,1975. 대림역 1번 출입구 밑,37.49256516,126.8947525,6,10,60
ST-1238,1976. 남구로역 5번 출입구 앞,37.48567963,126.88670349,18,10,180
ST-1239,1977. 천왕역 1번 출입구 앞,37.48620987,126.83882141,5,15,33
ST-1241,1979. 구로1동우체국 앞,37.4920311,126.87377167,15,10,150
ST-1243,1981. 천왕지구삼거리 앞,37.47943115,126.84269714,50,10,500
ST-1273,1983. 구로동롯데아파트,37.50254822,126.88388062,17,10,170
ST-1275,1985. 구로도서관,37.49851608,126.89199066,24,20,120
ST-1521,1986. 태평양물산,37.48485947,126.89518738,16,15,107
ST-1522,1987. 개봉아이파크아파트 앞,37.49034119,126.8609314,49,15,327
ST-1523,1988. 고척LIGA아파트 앞,37.50605011,126.86078644,51,20,255
ST-1526,1991. 오류동역 맞은편,37.49676132,126.84496307,54,13,415
ST-1527,1992. 구로구배드민턴실내체육관 앞,37.4917984,126.83242035,16,12,133
ST-1528,1993. 금강수목원아파트 앞,37.48937988,126.834198,33,10,330
ST-1529,1994. 삼성전자 물류센터 앞,37.49699783,126.8717804,44,10,440
ST-1531,1996. 구일역 1번 출입구 앞,37.49539948,126.87100983,14,20,70
ST-1696,1998. 고척교 교차로,37.49856949,126.871521,15,23,65
ST-1732,1999. 수궁동 성당 주변,37.49525833,126.83065796,4,10,40
ST-1733,2000. 신도림4차 e편한세상 아파트 1109동 앞,37.5123291,126.88683319,21,15,140
ST-683,2002. 노들역 1번출구,37.51284409,126.95246887,41,17,241
ST-877,2003. 사육신공원앞,37.51335907,126.94805908,8,10,80
ST-686,2008. 노량진근린공원 대방공원,37.5093689,126.92807007,16,10,160
ST-726,2009. 보라매역 8번출구,37.50007629,126.92108154,11,10,110
ST-727,2012. 대림사거리(동작상떼빌아파트),37.48836136,126.90622711,16,10,160
ST-687,2013. 장승배기역 5번출구,37.50585175,126.93936157,4,30,13
ST-728,2015. 신대방삼거리역 6번출구쪽,37.49985504,126.92956543,36,20,180
ST-688,2016. 신대방삼거리역 3번출구쪽,37.49964523,126.92709351,34,10,340
ST-690,2020. 장승배기역2번출구뒷편쪽,37.50449753,126.93898773,10,10,100
ST-691,2024. 상도역 1번출구,37.50217819,126.94820404,2,10,20
ST-692,2025. 흑석역 1번출구,37.50938034,126.96361542,27,20,135
ST-932,2026. 흑석역 4번출구,37.50858688,126.96349335,15,10,150
ST-693,2027. 중앙대학교 정문 1,37.50704193,126.95915222,6,15,40
ST-923,2032. 이수역 11번출구쪽,37.48550797,126.98162079,32,10,320
ST-729,2033. 사당동 아르테스 웨딩앞,37.48149109,126.98158264,21,10,210
ST-924,2034. 사당역 7번출구쪽,37.47689056,126.98057556,25,19,132
ST-694,2036. 정금마을 마을버스정류장,37.49466324,126.98244476,20,12,167
ST-696,2038. 동작역 7번출구,37.50318146,126.97608948,5,10,50
ST-697,2040. 비계 버스정류소,37.5063591,126.96907806,4,10,40
ST-731,2041. 사당중학교 버스정류소,37.48683548,126.9680481,13,7,186
ST-732,2048. 삼일초등학교 인근,37.48907852,126.97356415,19,10,190
ST-699,2050. 노량진역 5번출구,37.51324844,126.93997192,22,15,147
ST-700,2054. 삼익아파트,37.51054764,126.94484711,21,10,210
ST-733,2056. 동작구민 체육센터,37.49449921,126.91652679,1,10,10
ST-701,2057. 상도 아이파크 아파트,37.5008812,126.94174957,1,10,10
ST-1150,2058. 동작경찰서,37.5135231,126.94352722,35,14,250
ST-1151,2059. 보라매공원 정문,37.49707794,126.91779327,12,10,120
ST-1152,2060. 남성역3번출구 뒤,37.48463058,126.97154999,28,10,280
ST-1154,2062. 사당새마을금고,37.48665237,126.9678421,13,10,130
ST-1355,2064. 흑석한강푸르지오 106동앞,37.50535583,126.96617889,1,5,20
ST-1356,2065. 서울시여성가족재단,37.51198959,126.92708588,9,10,90
ST-1542,2066. 양문교회 앞,37.48939896,126.90711212,35,10,350
ST-1543,2067. 보라매역․동작세무서 버스정류장(강남중학교방면),37.49766922,126.91986847,27,10,270
ST-1667,2069. 숭실대 입구역3번 출구 앞,37.4966011,126.95368195,2,7,29
ST-1545,2070. 노량진역 2번 출구 앞,37.51391983,126.94306946,63,18,350
ST-2350,2077.노들역 3번출구,37.51193619,126.9541626,33,10,330
ST-2351,2078.흑석 아크로리버하임(103동),37.51083755,126.96163177,8,13,62
ST-2352,2079.중앙대학교 중앙광장,37.50667191,126.95777893,4,10,40
ST-2353,2080. 대방지하보도(대방동경남아너스빌아파트),37.51213455,126.92543793,7,15,47
ST-2355,2082.7호선 이수역7번출구,37.4846077,126.98179626,17,10,170
ST-2356,2083.흑석롯데캐슬에듀포레(107동),37.50470352,126.96073151,6,10,60
ST-2357,2084.e편한세상 상도노빌리티 앞,37.50468826,126.94664764,5,11,45
ST-2358,2085.강남중학교 앞,37.50274277,126.92157745,13,20,65
ST-2359,2086.삼일수영장 앞,37.48712158,126.9743576,20,22,91
ST-2361,2088.상도중앙하이츠빌 입구,37.50024796,126.94972992,3,10,30
ST-2362,2089.사당역10번출구(금강빌딩),37.4791069,126.98150635,15,10,150
ST-2363,2090.기아자동차 사당점 앞,37.48377991,126.97792053,35,15,233
ST-2364,2091. 이수역9번출구,37.48470306,126.98059082,16,15,107
ST-2365,2092.흑석한강푸르지오(110동),37.50311279,126.96471405,3,10,30
ST-2366,2093.상도SH빌아파트 입구,37.50321198,126.95459747,4,8,50
ST-2367,2094.숭실대학교(중문) ,37.49550629,126.95637512,0,20,0
ST-2368,2095.경문고등학교 앞,37.49150085,126.98240662,16,10,160
ST-2369,2096.서울특별시 동작관악교육지원청,37.50251389,126.94065094,3,8,38
ST-702,2102. 봉림교 교통섬,37.48408508,126.92688751,1,13,8
ST-703,2103. 신림동 우방아파트,37.4891777,126.91927338,22,10,220
ST-712,2104. 사당역 5번출구,37.47608948,126.98133087,5,13,38
ST-704,2105. 미성동 신림체육센터,37.48025131,126.91460419,23,12,192
ST-705,2106. 세이브마트,37.47372818,126.91840363,35,12,292
ST-714,2108. 은천치안센터,37.48334122,126.94319916,31,20,155
ST-882,2109. 은천로입구 가로공원,37.48620224,126.9358139,44,22,200
ST-950,2110. 조원동 미성아파트,37.48319244,126.90203094,10,9,111
ST-965,2111. 서울대입구역 1번출구,37.48086929,126.95331573,1,10,10
ST-715,2112. 서울대입구역 마에스트로,37.4813385,126.95064545,1,15,7
ST-883,2115. 관악구시설관리공단,37.47991562,126.90283966,17,20,85
ST-717,2116. 에이스에이존빌딩,37.48170471,126.95082855,2,9,22
ST-884,2119. 중앙동 동진빌딩,37.48425674,126.95469666,11,10,110
ST-719,2122. 낙성대로 입구,37.47805786,126.960495,7,20,35
ST-707,2127. 난곡종점,37.46488571,126.91947937,1,10,10
ST-720,2128. 관악구청교차로,37.47949982,126.95265198,4,12,33
ST-721,2129. 낙성대 과학전시관,37.46905518,126.95814514,4,10,40
ST-722,2130. 영어마을 관악캠프,37.47198868,126.95842743,14,10,140
ST-976,2136. 신림역 8번출구,37.48450851,126.93006897,19,8,238
ST-951,2139. 서울신성초등학교,37.4711647,126.93701935,5,10,50
ST-724,2140. 신림1교 교차로,37.47842789,126.93186188,18,20,90
ST-886,2143. 서울산업정보학교,37.4706955,126.94219971,5,10,50
ST-709,2144. 난우길입구,37.47777557,126.91675568,17,15,113
ST-725,2145. 은천초등학교 육교,37.48635864,126.9429245,7,12,58
ST-887,2148. 낙성대역 3번출구 뒤,37.477108,126.96294403,1,10,10
ST-952,2156. 신림푸르지오아파트,37.48072052,126.90932465,12,12,100
ST-1156,2159. 인헌초교,37.47509003,126.95922852,2,10,20
ST-1259,2164. 관악우체국,37.48476791,126.93287659,8,8,100
ST-1260,2165. JK장평타워,37.47648239,126.96536255,0,10,0
ST-1262,2167. 낙성대역 1번출구,37.47629547,126.96495819,1,12,8
ST-1264,2169. 봉천역 2번출구,37.48218918,126.94213104,8,7,114
ST-1265,2170. 조원동 강남힐병원,37.48152924,126.91203308,18,10,180
ST-1337,2171. 서울대입구역 5번출구,37.48154831,126.95200348,2,17,12
ST-1267,2172. 나들목공원,37.46940613,126.94451141,0,15,0
ST-1268,2173. 당곡사거리,37.48974991,126.92746735,12,10,120
ST-1269,2174. 삼성디지털프라자관악점,37.48856354,126.92848206,7,10,70
ST-1270,2175. 신림동걷고싶은문화의거리입구,37.48730087,126.92870331,16,7,229
ST-1357,2176. 보라매공원 보도육교,37.48899078,126.91638184,40,15,267
ST-1547,2178. 서울대학교 정문,37.46709442,126.94932556,0,20,0
ST-1548,2179. 양녕로 입구,37.48218918,126.94615936,27,7,386
ST-1702,2184. 구암초등학교 버스정류장,37.48962784,126.94593048,0,10,0
ST-1757,2185. 대학동 고시촌,37.47046661,126.93865204,15,10,150
ST-2370,2186. 낙성대입구삼거리,37.4788208,126.95960999,2,15,13
ST-2371,2187. 현대시장사거리,37.4867363,126.9475174,1,15,7
ST-2373,2189. 봉천역 4번출구,37.48275375,126.94140625,9,15,60
ST-2374,2190.도원맨션,37.48368835,126.93915558,8,12,67
ST-2375,2191.대학동주민센터 ,37.47068787,126.93648529,15,10,150
ST-2379,2195.은천교회,37.48464584,126.93450928,11,15,73
ST-2380,2196. 봉천역 3번출구,37.4833107,126.93902588,19,15,127
ST-2382,2198.사랑의병원,37.47946548,126.95693207,5,10,50
ST-2383,2199.신봉천주유소 A,37.47877121,126.95869446,2,8,25
ST-742,2202.청계산입구역 1번출구,37.44893646,127.05437469,2,20,10
ST-925,2203. 청계산입구역 2번출구,37.44765854,127.05501556,0,10,0
ST-743,2205. 내곡3단지 어린이공원 앞,37.45375061,127.05937958,11,15,73
ST-744,2206. 언남초등학교 앞,37.45435715,127.06210327,15,20,75
ST-926,2207. 내곡파출소 뒤 정자,37.45440674,127.06492615,0,9,0
ST-745,2210. 반포1동 주민센터 앞,37.50509644,127.0131073,3,10,30
ST-927,2211. 서초구립반포도서관 앞,37.50263596,127.01231384,0,10,0
ST-746,2212.서초현대4차아파트 201동 맞은편,37.50065231,127.01861572,15,14,107
ST-747,2213. 고속터미널역 5번출구 앞,37.5022316,127.0022583,16,20,80
ST-748,2214. 신반포역 2번출구 앞,37.50394058,126.99710083,51,15,340
ST-928,2215. 반포종합운동장 입구,37.5017128,126.99547577,7,10,70
ST-749,2217.아크로리버뷰 부지 앞,37.51304626,127.00595856,58,20,290
ST-750,"2219. 고속터미널역 8-1번, 8-2번 출구 사이",37.50619888,127.0039444,24,20,120
ST-752,2221. 방일초교 마을버스 정류장,37.48561096,126.99468231,10,15,67
ST-753,2222.사당역 12번출구 뒤,37.47806931,126.98203278,15,10,150
ST-754,2223. 방배래미안 정문 앞,37.47261047,126.98300934,2,15,13
ST-755,2225.백석예술대학교 제3캠퍼스 앞,37.4737587,126.99524689,0,10,0
ST-756,2226. 신동아럭스빌아파트 앞,37.47518158,127.00138855,1,10,10
ST-757,2227.방배열린문화센터 앞,37.48905182,126.99252319,11,15,73
ST-758,2228.뒷벌공원 옆,37.48976898,126.986763,34,15,227
ST-759,2229.로고스교회 맞은 편,37.48735046,126.98492432,23,10,230
ST-760,2230.이수역 4번 출구,37.4858284,126.98262787,35,20,175
ST-761,2231. 삼성타운(삼성생명) A동 맞은편,37.49691391,127.02496338,4,17,24
ST-762,2233. 서초신동아1차아파트 옆,37.49111176,127.02295685,6,13,46
ST-763,2235.KT 서초지사 앞,37.48235703,127.00338745,1,10,10
ST-764,2237.서울남부터미널 대합실 입구,37.48455811,127.01486969,2,20,10
ST-765,2239.교대역 6번출구,37.49421692,127.01378632,8,10,80
ST-766,2241.양재전화국 사거리,37.48537827,127.04170227,4,6,67
ST-767,2242.양재역 10번 출구 앞,37.48398972,127.03417969,1,20,5
ST-768,2243.서울가정법원,37.48149109,127.03672791,0,15,0
ST-769,2244. 말죽거리공원 사거리,37.47785187,127.03890991,7,20,35
ST-770,2245.양재초등학교 맞은편,37.47361374,127.03050995,26,20,130
ST-889,2246. 서울시 품질시험소 앞,37.46920013,127.02900696,10,10,100
ST-771,2247.섬들근린공원,37.46263885,127.02661896,38,30,127
ST-929,2248. 서초리슈빌S 글로벌 앞,37.45995331,127.02474213,3,10,30
ST-880,2249. 우솔초등학교 맞은편,37.45623398,127.01934814,10,10,100
ST-881,2250. 서초유치원 맞은편,37.4557991,127.01628876,39,10,390
ST-781,2251. 더케이호텔 입구(양재2) ,37.46750641,127.03447723,3,10,30
ST-890,2252. 잔디마을 마을버스 정류장,37.46332169,127.03604126,1,25,4
ST-772,2255. 양재시민의숲역 1번출구,37.47016525,127.03862,21,25,84
ST-773,2256.양재동 꽃시장 입구,37.46768951,127.0403595,4,10,40
ST-774,2257. 청계산 입구 삼거리,37.46268845,127.04611206,2,10,20
ST-775,2258.구룡사 삼거리,37.47153854,127.05059052,1,22,5
ST-780,2259. 잠원역 3번-4번 출구사이,37.51298904,127.01117706,42,15,280
ST-879,2263. 바우뫼문화복지회관,37.47192764,127.02684021,16,20,80
ST-935,2264. 이수역 1번출구,37.48897171,126.98271942,18,9,200
ST-949,2265. 이수고가차도 남단,37.49474335,126.98306274,8,10,80
ST-1158,2266. 서초역 3번출구,37.49053574,127.00804901,7,15,47
ST-1161,2269. 주홍교 하부,37.51034927,127.01605225,3,15,20
ST-1162,2270. 서초포레스타 7단지,37.44896698,127.05773926,16,10,160
ST-1163,2271. 내방역 8번출구 앞,37.48802185,126.99411774,24,8,300
ST-1164,2272. 교대입구 교차로,37.4873085,127.01058197,10,10,100
ST-1165,2273. 일동제약 사거리,37.47782898,127.03826904,2,10,20
ST-1166,2274. 양재시민의숲역 3번출구,37.4692421,127.03982544,2,10,20
ST-1168,2276. 영동1교 (양재천근린공원),37.47387695,127.03903198,7,10,70
ST-1169,2277. 길마중4교 하부,37.51483917,127.01560211,26,10,260
ST-1305,2279. 교대역 5번출구뒤,37.49361801,127.01418304,31,8,388
ST-1307,2281. 서울교통공사 사당별관 건너편,37.47597885,126.98628235,2,7,29
ST-1309,2283. 그룹한빌딩옆,37.48652649,126.98916626,5,10,50
ST-1310,2284. CJ오쇼핑앞,37.4681015,126.98680115,0,15,0
ST-1311,2285. LH서초3단지 301동 맞은편,37.45742416,127.02265167,10,10,100
ST-1312,2286. 탑성마을입구,37.4585495,127.05588531,5,7,71
ST-1313,2287. 능안마을입구,37.45561981,127.06710052,1,5,20
ST-1314,2288. 안골마을입구,37.45568848,127.06400299,0,5,0
ST-1315,2289. 남태령역 2번출구,37.46429825,126.98852539,0,10,0
ST-1360,2293. SPC 앞,37.48479843,127.03699493,0,10,0
ST-1361,2294. 두상빌딩 앞,37.47590637,127.04624176,30,15,200
ST-1404,2297. 남부터미널역 1번출구,37.485672,127.01592255,4,10,40
ST-1406,2299. 한전아트센터 앞,37.48646927,127.02806091,3,12,25
ST-777,2301. 현대고등학교 건너편,37.52407074,127.02178955,6,10,60
ST-787,2302. 교보타워 버스정류장(신논현역 3번출구 후면),37.5055809,127.02427673,2,10,20
ST-788,2303. 논현역 10번출구,37.51137161,127.02146149,8,15,53
ST-789,2304. 대현그린타워,37.5116272,127.03565216,1,10,10
ST-790,2305. MCM 본사 직영점 앞,37.52064133,127.03450775,0,6,0
ST-791,2306. 압구정역 2번 출구 옆,37.5271225,127.02871704,7,25,28
ST-792,2307. 압구정 한양 3차 아파트,37.52838135,127.03901672,1,10,10
ST-793,2308. 압구정파출소 앞,37.52930069,127.03559875,7,14,50
ST-783,2309. 청담역(우리들병원 앞),37.51890182,127.04938507,11,10,110
ST-794,2310. 청담동 맥도날드 옆(위치),37.52361298,127.04017639,5,10,50
ST-786,2311. 학동로 래미안 아파트 앞,37.51777267,127.04302216,0,6,0
ST-795,2312. 청담역 13번 출구 앞,37.52058029,127.05632782,7,10,70
ST-796,2313. 금원빌딩 앞,37.52505493,127.05252838,2,10,20
ST-799,2315. 봉은사역 5번출구 옆,37.51424789,127.06111908,0,10,0
ST-784,2317. 삼성도로공원,37.51588821,127.06620026,2,10,20
ST-801,2318. 삼성중앙역4번출구(문화센터더 리빌),37.51357651,127.05503082,1,16,6
ST-802,2319. 포스코사거리 서측(수협 삼성동 지점),37.50660706,127.05467987,1,10,10
ST-803,2320. 도곡역 대치지구대 방향,37.49191284,127.05709076,12,10,120
ST-804,2321. 학여울역 사거리,37.49611664,127.06944275,4,10,40
ST-807,2324. 천주교 대치 2동 교회 옆,37.50043869,127.06622314,1,10,10
ST-808,2325. 대치삼성아파트 앞 교차로,37.4986496,127.05931854,4,10,40
ST-809,2326. 대치동 삼성로,37.50239563,127.05879974,0,10,0
ST-810,2327. 뱅뱅사거리 랜드마크타워 앞,37.49055099,127.03146362,0,15,0
ST-811,2328. 르네상스 호텔 사거리 역삼지하보도 7번출구 앞,37.50321198,127.04273224,0,10,0
ST-812,2329. 르네상스호텔사거리 역삼지하보도 2번출구,37.50235748,127.04319,0,10,0
ST-813,2330. 역삼월드메르디앙아파트 앞,37.49219894,127.03945923,3,10,30
ST-814,2331. 동영문화센터앞,37.49805069,127.04460144,2,10,20
ST-815,2332. 선릉역3번출구,37.50410461,127.04903412,2,8,25
ST-816,2333. 양재역 3번출구 주변,37.48515701,127.03407288,2,14,14
ST-817,2334. 삼호아파트 2동 ( 간선도로),37.49375916,127.04589844,1,12,8
ST-818,2335. 3호선 매봉역 3번출구앞,37.48676682,127.04676056,5,15,33
ST-819,2336. 강남세브란스교차로  래미안그레이튼 104동 앞,37.49423599,127.04746246,3,10,30
ST-782,2337. 대모산입구역 2번출구 앞,37.49207687,127.07197571,11,10,110
ST-820,2339. 현대아파트 정문 앞,37.48326111,127.0522995,6,10,60
ST-821,2340. 삼호물산버스정류장(23370) 옆,37.47750854,127.04517365,29,17,171
ST-822,2341. 일원역 4~5번 출구 사이,37.4833107,127.08493805,0,10,0
ST-823,2342. 대청역 1번출구  뒤,37.49390793,127.07962036,10,15,67
ST-779,2344. 리엔파크 2단지 앞,37.46506119,127.10119629,21,10,210
ST-961,2347. 두산건설 본사,37.51863861,127.03540039,0,11,0
ST-797,2348. 포스코사거리(기업은행),37.50723267,127.05685425,1,23,4
ST-959,2349. 역삼빌딩 앞(하나은행 옆),37.50154495,127.03856659,0,12,0
ST-960,2350. 래미안그레이튼102동앞,37.49482346,127.04790497,2,9,22
ST-937,2351. 청소년수련관(수영장)앞,37.48387909,127.0890274,3,11,27
ST-962,2352. 서울본부세관(건설회관 앞),37.51758957,127.03502655,0,6,0
ST-963,2353. 강남구청역 2번출구 뒤,37.51681137,127.04047394,1,10,10
ST-953,2354. 청담역 2번출구,37.51978683,127.0567627,2,5,40
ST-954,2356. 강남구청,37.51807022,127.04711914,7,10,70
ST-966,2357. 르네상스호텔사거리 역삼지하보도 3번출구 앞 (더 오번 빌딩 명동칼국수 앞),37.50166321,127.04297638,0,10,0
ST-957,2358. 구룡초사거리 (현대아파트10동 앞 ),37.48138428,127.05391693,10,7,143
ST-958,"2359. 국립국악중,고교 정문 맞은편",37.47560501,127.05037689,31,10,310
ST-956,2360. 도곡1동 주민센터 교차로,37.4928093,127.04138947,8,9,89
ST-1171,2362. 신사동 가로수길 입구,37.51763535,127.02245331,1,10,10
ST-1172,2363. 강남 을지병원 교차로,37.51913834,127.02751923,1,15,7
ST-1173,2364. 도산공원교차로,37.52124023,127.0318985,5,10,50
ST-1174,2365. K+ 타워 앞,37.52330017,127.03847504,3,15,20
ST-1177,2368. 도곡동 경남아파트 건너편,37.48934174,127.04129791,0,7,0
ST-1178,2369. KT선릉타워,37.50542831,127.0528717,6,20,30
ST-1179,2370. 한티역 3번출구,37.49655151,127.0542984,7,10,70
ST-1180,2371. 한국우편사업진흥원,37.51474762,127.03513336,1,6,17
ST-1181,2372. 대치역 사거리,37.49449921,127.063797,6,10,60
ST-1182,2373. 개포동역 사거리,37.48927689,127.06557465,5,20,25
ST-1184,2375. 수서역 1번출구 앞,37.48735046,127.10099792,2,14,14
ST-1185,2376. 수서역 7번출구 앞,37.48677826,127.10051727,1,14,7
ST-1186,2377. 수서역 5번출구,37.48735046,127.10232544,1,9,11
ST-1245,2380. 봉은사로68길 북측,37.51169586,127.04934692,0,12,0
ST-1246,2381. 언주역 4번출구,37.50780869,127.03498077,3,8,38
ST-1247,2382. 역삼동 sk뷰 501동앞,37.50122833,127.05036163,0,6,0
ST-1248,2383. 보금자리정원,37.46632767,127.09488678,9,10,90
ST-1364,2384. 자곡사거리,37.47602844,127.10594177,35,15,233
ST-1365,2385. 학동역,37.51395035,127.03015137,1,10,10
ST-1366,2386. 크린랩 본사,37.50958633,127.04090881,1,10,10
ST-1407,2387. 래미안강남힐즈 사거리,37.47245407,127.09607697,14,10,140
ST-1433,2388. 강남구 도시관리공단,37.51678467,127.05161285,3,18,17
ST-1559,2389. 경기여자고등학교 후문 (삼성로3길 입구),37.48616028,127.06723785,17,15,113
ST-1560,2390. 구룡마을 입구 (래미안블레스티지 아파트),37.48088074,127.06304169,37,13,285
ST-1561,2391. 구룡터널 입구(개포1단지아파트),37.47598648,127.05962372,5,5,100
ST-1562,2392. 구룡산 입구 (구룡산 서울둘레길 입구),37.47447205,127.05545044,2,10,20
ST-1564,2394. 개포래미안포레스트아파트 107동 앞,37.48025131,127.05419159,19,10,190
ST-1566,2396. 영동3교 북단(우성캐릭터 앞 보도),37.48574066,127.05104828,2,15,13
ST-1568,2398. 더라움,37.50811005,127.0394516,1,10,10
ST-1571,2401. 밀알학교 입구 (삼성서울병원 입구),37.48656082,127.08267212,0,10,0
ST-1573,2403. 공무원연금매점 교차로 (개포주공9단지 입구),37.48871994,127.07453918,19,10,190
ST-1574,2404. 대모산입구역 4번 출구 앞,37.49180984,127.07315826,28,10,280
ST-1575,2405. 청담공원앞 교차로,37.51871109,127.05084991,3,14,21
ST-1576,2406. 논현동 광명빌딩 앞,37.5175705,127.02364349,1,10,10
ST-1577,2407. 역삼서초삼성 세무서 앞 (역삼빌딩 앞),37.49847031,127.03011322,1,10,10
ST-1578,2408. 강남한양수자인아파트,37.4773407,127.11327362,24,14,171
ST-1679,2409. 역삼동 디오슈페리움 (우성아파트 사거리),37.49206161,127.03074646,0,20,0
ST-1680,2410. 포스코피앤에스타워 (역삼역 3번출구 부근),37.49959946,127.03375244,2,10,20
ST-1703,2411. 세곡동 성당,37.47296906,127.11222839,11,15,73
ST-1879,2413.도곡역 1번 출구,37.49095917,127.05498505,2,20,10
ST-1880,2414. 도곡역 아카데미스위트 앞,37.48897171,127.05182648,12,20,60
ST-1881,2415.한티역 롯데백화점 앞,37.49667358,127.05342865,10,15,67
ST-1882,2416.한티역 6번 출구,37.4958992,127.05219269,15,10,150
ST-1883,"2417.선정릉 디캠프(D,CAMP)앞",37.50799942,127.04524994,2,10,20
ST-1884,2418.봉은사역 7번 출구 ,37.51393509,127.05982208,3,10,30
ST-1885,"2419.봉은사역 1,2번 출구 ",37.51430893,127.05970001,2,13,15
ST-1886,2420.학여울역 사거리(LG베스트샵 앞),37.49689484,127.07013702,4,20,20
ST-1887,2421. 신논현역 4번출구,37.504673,127.02579498,3,15,20
ST-1888,2422.수서동 성당 맞은편,37.48416901,127.09484863,0,10,0
ST-1889,2423.영희초교 사거리(래미안개포루체하임),37.4908371,127.08065033,11,10,110
ST-1891,2425.세곡동 사거리(대왕초등학교 정류장),37.46461868,127.10684967,11,20,55
ST-1892,2426.강남한신휴플러스 6단지,37.46829605,127.10469818,18,10,180
ST-1893,2427.개포고등학교 정문앞,37.48485184,127.0583725,3,10,30
ST-1896,2430.강남파이낸스센터앞(역삼역2번출구),37.50024414,127.03605652,2,10,20
ST-1897,2431.대치역 7번출구,37.49411774,127.06290436,9,10,90
ST-1552,2501. 서초 포레스타5단지,37.45066071,127.05706024,24,10,240
ST-1553,2502. 서초역1번출구 앞,37.49195099,127.00855255,12,9,133
ST-1554,2503. 반포1동 서초빌딩 앞,37.50360107,127.02078247,8,6,133
ST-1555,2504. 신사역 4번출구 뒤,37.51588058,127.01930237,1,10,10
ST-1556,2505. 우성아파트사거리 (기업은행앞),37.49325943,127.02953339,10,12,83
ST-1557,2506. LG유플러스 (방배사옥),37.47909164,126.99067688,10,10,100
ST-1655,2509. 심산기념문화센터,37.49836349,126.9911499,2,16,13
ST-1735,2510. JW타워,37.48303986,127.02146149,0,8,0
ST-1739,2511. 이수역 6번출구 앞,37.48398972,126.98234558,20,10,200
ST-1899,2514.사평역 2번출구,37.50364304,127.01602173,6,10,60
ST-1900,2515.서초초등학교 후문,37.49892807,127.02472687,3,15,20
ST-1901,2516.본마을 노인복지센터 앞,37.45409775,127.05244446,23,6,383
ST-1902,2517. 서초그랑자이 앞,37.48768234,127.0247879,23,20,115
ST-1904,2519.서초2교(사임당로 방면),37.49100876,127.02352142,10,10,100
ST-1905,2520.서초1교 (진흥아파트 방면),37.49593353,127.02177429,9,20,45
ST-1906,2521.서초 크로바타워 앞,37.49556351,127.0191803,13,13,100
ST-1908,2523.뉴코아 킴스클럽 앞,37.51019287,127.00725555,29,10,290
ST-1909,2524.반포쇼핑타운 8동 앞,37.50735092,127.00801849,6,15,40
ST-1910,2525.반포쇼핑타운 2동 앞,37.5056076,127.00215912,50,20,250
ST-1914,2529.우리은행 방배동지점 앞,37.48991776,126.99208069,33,12,275
ST-1915,2530.삼호3차아파트 앞,37.4977951,126.98706818,30,13,231
ST-1916,2531.멤피스아파트 앞,37.49420547,126.98935699,39,20,195
ST-1917,2532.국립국악원 앞,37.47820282,127.00878143,1,13,8
ST-1918,2533.한가람미술관 앞,37.48087692,127.01452637,2,10,20
ST-1920,2535.신반포역 3번출구 뒤,37.50362396,126.99732208,33,10,330
ST-1921,2536.서초AICT 우수기업센터 앞,37.45861435,127.03932953,1,10,10
ST-1922,2537.양재역 8번출구 앞,37.48257065,127.03643799,0,10,0
ST-1923,2538.사평리근린공원,37.52026749,127.01525116,30,25,120
ST-2404,2539.대한무역투자진흥공사 KOTRA 앞,37.46540833,127.04377747,1,20,5
ST-1924,2540.반포천 앞,37.49905014,126.99625397,16,10,160
ST-1925,2541.옛골 입구,37.43097687,127.07033539,7,10,70
ST-1926,2542.신논현타워 앞,37.50508881,127.02391052,1,10,10
ST-1929,2545.국립중앙도서관(국제회의장옆),37.49721146,127.00427246,0,15,0
ST-2414,2547. 반포래미안 리오센트,37.51832199,127.01480865,17,7,243
ST-2415,2548.반포1동 자율방범초소 옆,37.50847626,127.01676178,2,18,11
ST-2416,2549.호반써밋서초파크 403동,37.45924759,127.02390289,19,10,190
ST-2417,2550.양재동 꽃시장 건너편,37.46738434,127.04145813,5,10,50
ST-1590,2601. 석촌호수 아뜰리에,37.5067482,127.09883118,7,16,44
ST-1592,2603. 송파 글마루 도서관,37.48095322,127.13010406,1,10,10
ST-1627,2604. 풍납토성 서성벽터A,37.53131104,127.11128235,51,10,510
ST-1656,2605. 복정역 1번 출구 앞,37.47195435,127.12709808,2,15,13
ST-1681,2608. 송파구청,37.51499176,127.10611725,1,10,10
ST-1682,2609. 보성중고등학교 후문 앞,37.52048874,127.1352005,0,10,0
ST-1684,2611. 송파지역자활센터 뒤,37.53641891,127.11616516,79,7,1129
ST-1705,2613. 잠실나들목,37.51678085,127.09049225,9,8,113
ST-1706,2614. 가락고등학교 앞,37.50186157,127.11723328,5,15,33
ST-1707,2615. 테라타워2,37.48834991,127.12078094,2,15,13
ST-1716,2616. 거여동 사거리,37.49704742,127.14035034,3,10,30
ST-1717,2617. 가락삼환아파트 앞,37.49618149,127.13803101,2,15,13
ST-1728,2618. 삼전역 1번출구,37.50471115,127.08756256,18,14,129
ST-1729,2619. 석촌고분역 4번출구,37.50233841,127.09644318,7,9,78
ST-1730,2620. 송파나루역 4번 출구옆,37.50997925,127.11231232,12,12,100
ST-1719,2621. 한성백제역 2번 출구,37.51665878,127.11625671,7,15,47
ST-1720,2622. 올림픽공원역 3번출구,37.51625824,127.13059235,2,20,10
ST-1851,2623.석촌동 주민센터,37.50362396,127.10355377,34,15,227
ST-1852,2625.가락종합 사회복지관,37.4955368,127.10720062,10,15,67
ST-1853,"2626.경찰병원역 1,2번 출구 사이",37.49569321,127.12385559,5,15,33
ST-1854,2627.문정시영아파트 5동 앞 공원,37.4911232,127.13510895,0,15,0
ST-1855,2628.문정역 1번출구,37.48669815,127.12244415,1,15,7
ST-1857,2630.서울방이동 고분군,37.50786591,127.11698914,1,12,8
ST-1858,2631.배명고등학교,37.49741364,127.09630585,4,15,27
ST-1859,2632.석촌고분역 2번 출구,37.50264359,127.09739685,22,9,244
ST-1860,2633.송파학사 옆,37.47817993,127.14710236,10,20,50
ST-1861,2634.위례포레샤인아파트 정류장,37.47716141,127.13713837,17,10,170
ST-1862,2635.잠실새내역 1번출구,37.51129532,127.08673859,3,21,14
ST-1864,2637. 아시아지하보도 14번 출구,37.51146317,127.07881165,0,15,0
ST-1866,2639.석촌역 8번출구,37.50550461,127.10657501,2,18,11
ST-1793,2641.송파역 4번출구,37.50004959,127.11151123,9,15,60
ST-1794,2642.마천동 성내천 쉼터,37.50149536,127.14778137,15,12,125
ST-1795,2643.풍납중학교 측면,37.52515793,127.11694336,2,10,20
ST-1796,2644. 성내5교,37.50166702,127.13774109,38,10,380
ST-1797,2645.잠실나들목2(엘스아파트136동),37.51621246,127.08434296,23,8,288
ST-1867,2646.레이크펠리스101동앞,37.50775909,127.09129333,22,12,183
ST-1868,2647.잠실 자전거 수리센터 앞,37.51100922,127.10114288,1,7,14
ST-1869,2648.헬리오시티 112동 앞,37.49469757,127.10464478,22,30,73
ST-1870,2649.오금공원사거리2,37.50544357,127.13233185,0,10,0
ST-1871,2650.위례22단지 2208동 다리앞,37.47854996,127.13813782,15,7,214
ST-1872,2651.경찰병원역 3번출구 앞,37.49612427,127.12480164,9,20,45
ST-1873,2652.송파 레미니스1단지 102동 앞,37.50883102,127.13426208,10,41,24
ST-1874,2653.올림픽공원사거리(선수촌아파트),37.51202011,127.12864685,17,25,68
ST-1875,2654.올림픽선수촌아파트 136동 앞,37.50997543,127.13369751,27,10,270
ST-1876,2655.송이공원,37.50057983,127.11884308,9,20,45
ST-1878,2656.풍납동 아이파크 107동 앞,37.52480316,127.11463928,6,10,60
ST-1877,2657.송파 파인타운 11단지 ,37.47916031,127.13219452,6,10,60
ST-2409,2658.가락몰 업무동,37.49535751,127.11569214,3,10,30
ST-2410,2659.서울친환경유통센터,37.49420929,127.10492706,4,10,40
ST-1727,2702. 마곡 엠밸리2단지,37.56917953,126.81944275,61,20,305
ST-2018,2703.서울도시가스 앞 ,37.54748535,126.87202454,22,20,110
ST-2020,2704.홈플러스(강서점),37.55852127,126.85401154,11,10,110
ST-2022,2706.강서공업고등학교 앞,37.57631683,126.8164978,19,13,146
ST-2023,2707.한강아파트,37.57036972,126.84441376,53,20,265
ST-2024,2708.강서한강자이타워 앞,37.56468201,126.84890747,14,15,93
ST-2025,2709.강변아파트 310동 앞,37.56458664,126.85691833,12,20,60
ST-2026,2710.라이품 공영주차장 앞,37.57131958,126.84166718,40,30,133
ST-2027,2711.가로공원공영주차장 1번 출구,37.53736115,126.83744812,35,9,389
ST-2028,2712.화곡터널입구교차로,37.53835678,126.84236145,0,18,0
ST-2029,2713.우장초등학교 앞,37.54853439,126.84667206,19,10,190
ST-2031,2715.마곡나루역 2번 출구 ,37.56692505,126.82743835,5,25,20
ST-2032,2716.롯데 R&D 센터,37.57094193,126.82831573,1,20,5
ST-2033,2717.LG유플러스 마곡사옥,37.56133652,126.83390045,26,62,42
ST-2034,2718.마곡수명산파크1단지,37.55519104,126.83146667,50,15,333
ST-2035,2719.마곡문화공원,37.56121063,126.83034515,5,40,13
ST-2036,2720.힐스테이트에코,37.55965805,126.8296051,3,30,10
ST-2037,2721.등촌1-10단지 교차로,37.56320572,126.8393631,32,12,267
ST-2040,2723.마곡 필네이처,37.56089401,126.83669281,12,13,92
ST-2041,2724.(재)FITI시험연구원,37.56848526,126.83856964,26,25,104
ST-2042,2725.서울식물원 식물문화센터,37.56883621,126.83563232,1,20,5
ST-2044,2727.서울식물원 잔디마당 앞,37.5639267,126.8306427,0,25,0
ST-2046,2729.넥센 유니버시티 앞,37.56948471,126.82809448,0,30,0
ST-2047,2730.마곡메가박스 앞,37.55912781,126.83495331,1,30,3
ST-2048,2731.명덕고교,37.55524063,126.8347168,1,19,5
ST-2049,2732.마곡수명산 1-2단지 ,37.5553093,126.82985687,49,14,350
ST-2050,2733.마곡13단지 정문 앞,37.5586319,126.81991577,117,20,585
ST-2054,2737.까치산역 3번 출구,37.53158951,126.84664154,18,10,180
ST-2056,2739.수명산파크1단지교차로,37.55363083,126.82861328,80,20,400
ST-2057,2740.마곡레포츠센터,37.57297516,126.83244324,3,20,15
ST-2058,2741.마곡수명산파크5-6단지,37.55061722,126.82688141,31,8,388
ST-2059,2742.강서구민올림픽체육센터,37.55990601,126.85042572,29,10,290
ST-2411,2744.강서세무서 앞,37.56209183,126.82096863,25,25,100
ST-2412,2745.수명초등학교,37.5525589,126.82311249,66,9,733
ST-2419,2746.수명산파크 4단지 411동 앞,37.55134964,126.82493591,57,10,570
ST-1753,2801. 대륭포스트타워1차,37.48437119,126.89542389,6,30,20
ST-1944,2804.항동지구 6단지 602동 앞,37.47737503,126.82001495,23,10,230
ST-1945,2805.구로자원순환센터 ,37.48250961,126.82575989,6,10,60
ST-1946,2806.항동지구 4단지 입구,37.48259735,126.82645416,2,10,20
ST-1947,2807.항동지구 1단지 105동 앞,37.48062897,126.82181549,10,10,100
ST-1948,2808.항동지구 2단지 202동 앞,37.48080826,126.82190704,21,10,210
ST-1949,2809.항동지구 11단지 1103동 앞,37.47790527,126.82311249,22,10,220
ST-1950,2810.항동지구 3단지 311동 앞,37.47793961,126.82327271,16,10,160
ST-1952,2812.항동프라자,37.4798317,126.82275391,2,15,13
ST-1953,2813.항동지구 3단지 302동 앞,37.47937012,126.82546997,9,5,180
ST-1954,2814.항동지구 10단지 1001동 앞,37.47934341,126.82563782,13,10,130
ST-1955,2815.항동지구 7단지 정문,37.47603607,126.81658936,15,12,125
ST-1956,2816.항동지구 8단지 803동옆(주차장입구),37.47473145,126.81700897,7,5,140
ST-1957,2817.천왕이펜하우스5단지 앞,37.47989655,126.84037018,18,10,180
ST-1958,2818.천왕이펜하우스3단지 앞,37.48223877,126.83853149,12,14,86
ST-1959,2819.하늘숲초등학교 앞,37.48366547,126.84161377,48,20,240
ST-1960,2820.신세기아파트 앞,37.49396515,126.8530426,11,10,110
ST-1961,2821.청구아파트 앞,37.50119019,126.86353302,12,10,120
ST-1962,2822.제니스스포츠 앞,37.50452042,126.87055206,29,14,207
ST-1963,2823.중앙유통단지 앞,37.49981308,126.87431335,5,10,50
ST-1964,2824.미래사랑어린이공원 앞,37.51006317,126.88956451,2,10,20
ST-1965,2825.초롱타운 앞,37.49545288,126.88039398,17,10,170
ST-1966,2826.가마산지하보도 옆,37.48864746,126.88047028,17,10,170
ST-2067,2901.공릉동풍림아파트 101동,37.62981415,127.06650543,47,8,588
ST-2068,2902.공릉풍림아파트 108동,37.62862015,127.06690979,52,12,433
ST-2069,2903.월계초안아파트 1단지,37.63372803,127.04436493,9,8,113
ST-2070,2904.중계3차청구아파트,37.65050507,127.07398224,0,8,0
ST-2073,2907. 월계중학교,37.63074875,127.05310822,7,15,47
ST-2074,2908. 광운대학교 중앙도서관,37.62000275,127.05856323,3,20,15
ST-2075,2909. 석계역 3번 출구,37.61545944,127.06745148,34,13,262
ST-2076,2910.도깨비시장,37.62289047,127.07365417,7,6,117
ST-2077,2911.상계역중앙시장,37.6588707,127.07191467,0,7,0
ST-2078,2912.대진고등학교,37.63815689,127.07326508,1,20,5
ST-2079,2913.상계8동 주민센터,37.66712952,127.05176544,36,17,212
ST-2080,2914.서울과학기술대학교(미래관),37.62950897,127.08103943,0,10,0
ST-2081,2915.서울과학기술대학교(어학교육원),37.63489914,127.07767487,0,35,0
ST-2083,2917.신창중학교 후문 맞은편 버스정류장,37.62807083,127.04692078,25,10,250
ST-2085,2919.등나무 근린공원(시립북서울미술관 앞) ,37.64020538,127.06761932,6,16,38
ST-2086,2920.상계중학교(당현2교사거리),37.65103531,127.06871033,0,14,0
ST-2087,2921.중계역 2번출구,37.64587021,127.06562042,0,10,0
ST-2160,3002.벽산상암스마트큐브 ,37.5650444,126.9036026,5,10,50
ST-2161,3003.래미안신공덕3차아파트,37.54554749,126.95679474,5,5,100
ST-2163,3005.마포구청 청사내,37.56624603,126.90218353,0,10,0
ST-2164,3006. 상암월드컵파크5단지(상암중학교),37.57929993,126.88731384,2,10,20
ST-2165,3007.MBC 앞,37.58198166,126.89044952,3,10,30
ST-2166,3008.DMC역7번출구,37.57711411,126.89836121,0,10,0
ST-2167,3009. 홍대입구역 사거리,37.55450058,126.92023468,0,20,0
ST-2168,3010.홍대입구역 3번출구,37.5582962,126.92538452,0,15,0
ST-2422,3013.서울지방고용노동청 앞,37.56760406,126.98725891,0,7,0
ST-1188,3100. 북성초교,37.55739594,126.9521637,0,8,0
ST-1189,3101. 서대문구청,37.57838058,126.93609619,1,15,7
ST-1190,3102. 연희삼거리,37.56799698,126.93165588,6,10,60
ST-1491,3103. 홍제삼거리 북측,37.58670044,126.94676971,3,8,38
ST-1492,3104. e편한세상 신촌4단지 앞,37.55812836,126.95620728,2,13,15
ST-2194,3109.북한산더샾 106동 앞,37.59293365,126.94129181,3,10,30
ST-2195,3110.홍은 현대아이파크 아파트 202동 앞,37.58928299,126.93694305,3,15,20
ST-2196,3111.무악재역 4번 출구,37.58221054,126.95016479,3,10,30
ST-2199,3113. 독립문 앞,37.57220459,126.95974731,12,15,80
ST-2198,3114.충정로역 3번 출구,37.56046295,126.96552277,1,7,14
ST-2200,3115.북아현 치안센터 인근,37.56145477,126.95574951,6,20,30
ST-2201,3116.신촌역 4번출구,37.55550385,126.93720245,0,10,0
ST-2202,3117.이화여대 인문관 인근,37.56406784,126.94532776,4,10,40
ST-2204,3119.연희 브라운스톤 아파트 앞,37.56519699,126.92985535,4,10,40
ST-2205,3120.DMC엘가아파트 앞,37.56983566,126.91809082,6,12,50
ST-2206,3121.가좌삼거리,37.57065201,126.91298676,17,15,113
ST-2207,3122.북가좌삼거리2,37.5742836,126.90646362,7,20,35
ST-2208,3123.DMC파크뷰자이1단지 110동 앞,37.57225418,126.9151001,8,30,27
ST-2210,3125.연희파크푸르지오아파트 앞,37.57564163,126.92782593,13,20,65
ST-2212,3127.홍은2파출소 옆,37.58333588,126.93628693,12,10,120
ST-2213,3128.동신병원 맞은편,37.5813179,126.93599701,9,7,129
ST-2214,3129.DMC래미안e편한세상203동옆,37.57626343,126.91132355,13,20,65
ST-2215,3130.가재울사거리,37.57455063,126.9182663,1,20,5
ST-2216,3131.연가교 교차로,37.57215881,126.92118835,25,15,167
ST-2217,3132.홍제교,37.59186172,126.94421387,0,10,0
ST-2219,3134.SK리쳄블(서울아리수본부),37.56131744,126.96658325,3,10,30
ST-1972,3201.당산skv1센터,37.53073502,126.89916992,6,9,67
ST-1973,3202.당산롯데캐슬프레스티지,37.52869034,126.903862,43,15,287
ST-1974,3203.도림동배드민턴체육관,37.50611496,126.89859009,15,10,150
ST-1975,3204.도림고가도로 밑,37.51124191,126.89818573,3,10,30
ST-1976,3205.문래현대2차,37.5202179,126.882164,30,10,300
ST-1977,3206.문래동 주민센터,37.51707077,126.899086,3,15,20
ST-1978,3207.양남사거리1,37.5218277,126.88972473,1,12,8
ST-1982,3211.신길 래미안 프레비뉴,37.50438309,126.90808868,9,15,60
ST-1983,3212.신풍역 6번출구,37.50025558,126.91215515,0,10,0
ST-1985,3214.영등포 푸르지오 아파트 A,37.51202393,126.90105438,29,10,290
ST-1986,3215.강변삼성래미안,37.52974319,126.90782928,33,15,220
ST-1990,3219.영등포역 1번출구,37.5148468,126.9077301,2,10,20
